$GPGSA,A,3,20,16,31,14,29,03,06,32,,,,,2.0,1.0,1.7*3A
$GPGSV,3,1,10,16,65,238,25,31,55,024,22,32,41,260,36,14,36,131,25*75
$GPGSV,3,2,10,20,27,286,17,29,23,059,27,06,19,176,21,23,11,318,*71
$GPGSV,3,3,10,03,09,189,14,30,07,045,*72
$GPRMC,071841.000,A,3030.7034,N,11423.6355,E,13.74,183.67,020708,,,A*52
$GPGGA,071842.000,3030.6990,N,11423.6354,E,1,08,1.0,33.4,M,-13.6,M,,0000*47
$GPGSA,A,3,20,16,31,14,29,03,06,32,,,,,2.0,1.0,1.7*3A
$GPRMC,071842.000,A,3030.6990,N,11423.6354,E,13.75,183.40,020708,,,A*52
$GPGGA,071843.000,3030.6946,N,11423.6351,E,1,08,1.0,33.7,M,-13.6,M,,0000*4B
$GPGSA,A,3,20,16,31,14,29,03,06,32,,,,,2.0,1.0,1.7*3A
$GPRMC,071843.000,A,3030.6946,N,11423.6351,E,13.39,184.31,020708,,,A*54
$GPGGA,071844.000,3030.6899,N,11423.6348,E,1,08,1.0,33.5,M,-13.6,M,,0000*45
$GPGSA,A,3,20,16,31,14,29,03,06,32,,,,,2.0,1.0,1.7*3A
$GPRMC,071844.000,A,3030.6899,N,11423.6348,E,14.88,185.71,020708,,,A*50
$GPGGA,071845.000,3030.6846,N,11423.6341,E,1,07,1.0,32.5,M,-13.6,M,,0000*41
$GPGSA,A,3,20,31,14,29,03,06,32,,,,,,2.6,1.0,2.4*3B
$GPRMC,071845.000,A,3030.6846,N,11423.6341,E,15.87,187.50,020708,,,A*55
$GPGGA,071846.000,3030.6800,N,11423.6335,E,1,08,1.0,30.2,M,-13.6,M,,0000*49
$GPGSA,A,3,20,16,31,14,29,03,06,32,,,,,2.0,1.0,1.7*3A
$GPGSV,3,1,10,16,65,238,19,31,55,024,23,32,41,260,37,14,36,131,19*75
$GPGSV,3,2,10,20,27,286,26,29,23,059,24,06,19,176,21,23,11,318,*70
$GPGSV,3,3,10,03,09,189,14,30,07,045,*72
$GPRMC,071846.000,A,3030.6800,N,11423.6335,E,15.59,186.46,020708,,,A*52
$GPGGA,071847.000,3030.6755,N,11423.6329,E,1,08,1.0,28.6,M,-13.6,M,,0000*47
$GPGSA,A,3,20,16,31,14,29,03,06,32,,,,,2.0,1.0,1.7*3A
$GPRMC,071847.000,A,3030.6755,N,11423.6329,E,16.09,185.83,020708,,,A*5D
$GPGGA,071848.000,3030.6707,N,11423.6325,E,1,08,1.0,28.0,M,-13.6,M,,0000*45
$GPGSA,A,3,20,16,31,14,29,03,06,32,,,,,2.0,1.0,1.7*3A
$GPRMC,071848.000,A,3030.6707,N,11423.6325,E,16.37,186.12,020708,,,A*5F
$GPGGA,071849.000,3030.6661,N,11423.6318,E,1,08,1.0,26.5,M,-13.6,M,,0000*40
$GPGSA,A,3,20,16,31,14,29,03,06,32,,,,,2.0,1.0,1.7*3A
$GPRMC,071849.000,A,3030.6661,N,11423.6318,E,16.30,186.55,020708,,,A*55
$GPGGA,071850.000,3030.6619,N,11423.6309,E,1,08,1.0,24.3,M,-13.6,M,,0000*43
$GPGSA,A,3,20,16,31,14,29,03,06,32,,,,,2.0,1.0,1.7*3A
$GPRMC,071850.000,A,3030.6619,N,11423.6309,E,15.68,186.47,020708,,,A*5F
$GPGGA,071851.000,3030.6578,N,11423.6303,E,1,08,1.0,23.6,M,-13.6,M,,0000*4E
$GPGSA,A,3,20,16,31,14,29,03,06,32,,,,,2.0,1.0,1.7*3A
$GPGSV,3,1,10,16,66,240,26,31,55,026,23,32,40,258,37,14,35,132,23*74
$GPGSV,3,2,10,20,27,285,25,29,23,058,29,06,20,175,21,23,12,318,23*77
$GPGSV,3,3,10,03,10,189,15,30,06,045,*7A
$GPRMC,071851.000,A,3030.6578,N,11423.6303,E,15.50,186.59,020708,,,A*54
$GPGGA,071852.000,3030.6536,N,11423.6299,E,1,08,1.0,23.8,M,-13.6,M,,0000*4B
$GPGSA,A,3,20,16,31,14,29,03,06,32,,,,,2.0,1.0,1.7*3A
$GPRMC,071852.000,A,3030.6536,N,11423.6299,E,15.19,185.42,020708,,,A*5B
$GPGGA,071853.000,3030.6495,N,11423.6295,E,1,08,1.0,24.4,M,-13.6,M,,0000*45
$GPGSA,A,3,20,16,31,14,29,03,06,32,,,,,2.0,1.0,1.7*3A
$GPRMC,071853.000,A,3030.6495,N,11423.6295,E,14.36,185.95,020708,,,A*58
$GPGGA,071854.000,3030.6453,N,11423.6292,E,1,08,1.0,24.8,M,-13.6,M,,0000*43
$GPGSA,A,3,20,16,31,14,29,03,06,32,,,,,2.0,1.0,1.7*3A
$GPRMC,071854.000,A,3030.6453,N,11423.6292,E,14.72,185.46,020708,,,A*5C
$GPGGA,071855.000,3030.6411,N,11423.6288,E,1,06,1.4,25.6,M,-13.6,M,,0000*4A
$GPGSA,A,3,20,16,31,14,03,32,,,,,,,2.7,1.4,2.3*33
$GPRMC,071855.000,A,3030.6411,N,11423.6288,E,14.41,186.41,020708,,,A*54
$GPGGA,071856.000,3030.6369,N,11423.6279,E,1,06,1.5,24.3,M,-13.6,M,,0000*4A
$GPGSA,A,3,20,16,31,03,06,32,,,,,,,2.7,1.5,2.3*31
$GPGSV,3,1,10,16,66,240,19,31,55,026,22,32,40,258,17,14,35,132,16*7D
$GPGSV,3,2,10,20,27,285,16,29,23,058,18,06,20,175,11,23,12,318,*77
$GPGSV,3,3,10,03,10,189,15,30,06,045,*7A
$GPRMC,071856.000,A,3030.6369,N,11423.6279,E,14.87,187.35,020708,,,A*59
$GPGGA,071857.000,3030.6319,N,11423.6275,E,1,07,1.3,23.9,M,-13.6,M,,0000*4A
$GPGSA,A,3,16,31,14,29,03,06,32,,,,,,2.4,1.3,2.1*3A
$GPRMC,071857.000,A,3030.6319,N,11423.6275,E,16.64,186.73,020708,,,A*5F
$GPGGA,071858.000,3030.6275,N,11423.6268,E,1,06,1.4,23.1,M,-13.6,M,,0000*4C
$GPGSA,A,3,16,31,14,29,03,32,,,,,,,2.5,1.4,2.1*3A
$GPRMC,071858.000,A,3030.6275,N,11423.6268,E,16.72,189.91,020708,,,A*53
$GPGGA,071859.000,3030.6218,N,11423.6260,E,1,06,1.4,22.9,M,-13.6,M,,0000*47
$GPGSA,A,3,16,31,14,29,03,32,,,,,,,2.5,1.4,2.1*3A
$GPRMC,071859.000,A,3030.6218,N,11423.6260,E,18.22,185.88,020708,,,A*5E
$GPGGA,071900.000,3030.6161,N,11423.6256,E,1,05,2.5,23.4,M,-13.6,M,,0000*4F
$GPGSA,A,3,20,16,31,29,32,,,,,,,,3.6,2.5,2.6*39
$GPRMC,071900.000,A,3030.6161,N,11423.6256,E,18.33,182.19,020708,,,A*54
$GPGGA,071901.000,3030.6099,N,11423.6263,E,1,07,1.0,25.1,M,-13.6,M,,0000*49
$GPGSA,A,3,20,16,31,14,29,03,06,,,,,,2.0,1.0,1.8*34
$GPGSV,3,1,10,16,66,240,17,31,55,026,21,32,40,258,17,14,35,132,18*7E
$GPGSV,3,2,10,20,27,285,15,29,23,058,20,06,20,175,22,23,12,318,*7F
$GPGSV,3,3,10,03,10,189,14,30,06,045,*7B
$GPRMC,071901.000,A,3030.6099,N,11423.6263,E,18.87,177.99,020708,,,A*58
$GPGGA,071902.000,3030.6046,N,11423.6265,E,1,08,0.9,25.9,M,-13.6,M,,0000*41
$GPGSA,A,3,20,16,31,14,29,03,06,30,,,,,1.7,0.9,1.4*37
$GPRMC,071902.000,A,3030.6046,N,11423.6265,E,17.31,176.54,020708,,,A*5D
$GPGGA,071903.000,3030.6006,N,11423.6276,E,1,08,0.9,27.7,M,-13.6,M,,0000*4A
$GPGSA,A,3,20,16,31,14,29,03,06,30,,,,,1.7,0.9,1.4*37
$GPRMC,071903.000,A,3030.6006,N,11423.6276,E,14.43,174.28,020708,,,A*55
$GPGGA,071904.000,3030.5971,N,11423.6271,E,1,08,0.9,28.6,M,-13.6,M,,0000*4E
$GPGSA,A,3,20,16,31,14,29,03,06,30,,,,,1.7,0.9,1.4*37
$GPRMC,071904.000,A,3030.5971,N,11423.6271,E,13.34,182.68,020708,,,A*55
$GPGGA,071905.000,3030.5941,N,11423.6266,E,1,08,0.9,31.8,M,-13.6,M,,0000*4C
$GPGSA,A,3,20,16,31,14,29,03,06,30,,,,,1.7,0.9,1.4*37
$GPRMC,071905.000,A,3030.5941,N,11423.6266,E,13.37,186.22,020708,,,A*58
$GPGGA,071906.000,3030.5911,N,11423.6262,E,1,07,1.6,37.1,M,-13.6,M,,0000*40
$GPGSA,A,3,16,31,14,29,03,06,30,,,,,,2.2,1.6,1.6*3F
$GPGSV,3,1,10,16,66,240,21,31,55,026,21,32,40,258,,14,35,132,23*75
$GPGSV,3,2,10,20,27,285,14,29,23,058,19,06,20,175,19,23,12,318,20*7E
$GPGSV,3,3,10,03,10,189,15,30,06,045,20*78
$GPRMC,071906.000,A,3030.5911,N,11423.6262,E,11.93,186.69,020708,,,A*59
$GPGGA,071907.000,3030.5880,N,11423.6260,E,1,06,1.7,39.9,M,-13.6,M,,0000*4C
$GPGSA,A,3,16,31,14,29,03,06,,,,,,,2.8,1.7,2.2*30
$GPRMC,071907.000,A,3030.5880,N,11423.6260,E,10.81,180.66,020708,,,A*58
$GPGGA,071908.000,3030.5850,N,11423.6270,E,1,06,1.7,42.0,M,-13.6,M,,0000*4A
$GPGSA,A,3,16,31,14,29,03,06,,,,,,,2.8,1.7,2.2*30
$GPRMC,071908.000,A,3030.5850,N,11423.6270,E,10.65,176.94,020708,,,A*55
$GPGGA,071909.000,3030.5824,N,11423.6267,E,1,07,1.3,42.9,M,-13.6,M,,0000*42
$GPGSA,A,3,16,31,14,29,03,06,32,,,,,,2.4,1.3,2.1*3A
$GPRMC,071909.000,A,3030.5824,N,11423.6267,E,9.59,184.15,020708,,,A*62
$GPGGA,071910.000,3030.5802,N,11423.6234,E,1,07,1.3,40.6,M,-13.6,M,,0000*45
$GPGSA,A,3,16,31,14,29,03,06,32,,,,,,2.4,1.3,2.1*3A
$GPRMC,071910.000,A,3030.5802,N,11423.6234,E,10.80,195.94,020708,,,A*5D
$GPGGA,071911.000,3030.5780,N,11423.6232,E,1,07,1.3,43.0,M,-13.6,M,,0000*42
$GPGSA,A,3,16,31,14,29,03,06,32,,,,,,2.4,1.3,2.1*3A
$GPGSV,3,1,10,16,66,240,21,31,55,026,22,32,40,258,33,14,35,132,25*70
$GPGSV,3,2,10,20,27,285,,29,23,058,26,06,20,175,19,23,12,318,20*77
$GPGSV,3,3,10,03,10,189,19,30,06,045,*76
$GPRMC,071911.000,A,3030.5780,N,11423.6232,E,10.01,188.60,020708,,,A*51
$GPGGA,071912.000,3030.5755,N,11423.6223,E,1,07,1.3,40.9,M,-13.6,M,,0000*43
$GPGSA,A,3,16,31,14,29,03,06,32,,,,,,2.4,1.3,2.1*3A
$GPRMC,071912.000,A,3030.5755,N,11423.6223,E,10.21,188.70,020708,,,A*59
$GPGGA,071913.000,3030.5726,N,11423.6213,E,1,07,1.3,40.1,M,-13.6,M,,0000*4D
$GPGSA,A,3,16,31,14,29,03,06,32,,,,,,2.4,1.3,2.1*3A
$GPRMC,071913.000,A,3030.5726,N,11423.6213,E,10.95,187.87,020708,,,A*57
$GPGGA,071914.000,3030.5690,N,11423.6206,E,1,07,1.3,41.5,M,-13.6,M,,0000*47
$GPGSA,A,3,16,31,14,29,03,06,32,,,,,,2.4,1.3,2.1*3A
$GPRMC,071914.000,A,3030.5690,N,11423.6206,E,11.74,189.37,020708,,,A*53
$GPGGA,071915.000,3030.5659,N,11423.6197,E,1,07,1.3,42.8,M,-13.6,M,,0000*46
$GPGSA,A,3,16,31,14,29,03,06,32,,,,,,2.4,1.3,2.1*3A
$GPRMC,071915.000,A,3030.5659,N,11423.6197,E,11.56,197.44,020708,,,A*57
$GPGGA,071916.000,3030.5639,N,11423.6177,E,1,07,1.3,43.0,M,-13.6,M,,0000*44
$GPGSA,A,3,16,31,14,29,03,06,32,,,,,,2.4,1.3,2.1*3A
$GPGSV,3,1,10,16,66,240,20,31,55,026,27,32,40,258,32,14,35,132,25*75
$GPGSV,3,2,10,20,27,285,,29,23,058,23,06,20,175,25,23,12,318,*7F
$GPGSV,3,3,10,03,10,189,21,30,06,045,12*7E
$GPRMC,071916.000,A,3030.5639,N,11423.6177,E,10.91,204.98,020708,,,A*5E
$GPGGA,071917.000,3030.5611,N,11423.6158,E,1,07,1.3,43.9,M,-13.6,M,,0000*4B
$GPGSA,A,3,16,31,14,29,03,06,32,,,,,,2.4,1.3,2.1*3A
$GPRMC,071917.000,A,3030.5611,N,11423.6158,E,11.02,212.67,020708,,,A*54
$GPGGA,071918.000,3030.5590,N,11423.6139,E,1,05,2.0,45.2,M,-13.6,M,,0000*46
$GPGSA,A,3,31,14,29,03,06,,,,,,,,3.3,2.0,2.7*3C
$GPRMC,071918.000,A,3030.5590,N,11423.6139,E,11.04,214.40,020708,,,A*53
$GPGGA,071919.000,3030.5568,N,11423.6118,E,1,07,1.3,43.9,M,-13.6,M,,0000*4C
$GPGSA,A,3,16,31,14,29,03,06,32,,,,,,2.4,1.3,2.1*3A
$GPRMC,071919.000,A,3030.5568,N,11423.6118,E,11.50,222.44,020708,,,A*56
$GPGGA,071920.000,3030.5551,N,11423.6080,E,1,08,1.0,41.5,M,-13.6,M,,0000*4E
$GPGSA,A,3,20,16,31,14,29,03,06,32,,,,,2.0,1.0,1.8*35
$GPRMC,071920.000,A,3030.5551,N,11423.6080,E,11.76,235.00,020708,,,A*54
$GPGGA,071921.000,3030.5547,N,11423.6019,E,1,07,1.0,38.0,M,-13.6,M,,0000*4C
$GPGSA,A,3,20,31,14,29,03,06,32,,,,,,2.6,1.0,2.4*3B
$GPGSV,3,1,10,16,66,240,19,31,55,026,26,32,40,258,18,14,35,132,21*72
$GPGSV,3,2,10,20,27,285,25,29,23,058,24,06,20,175,27,23,12,318,*7D
$GPGSV,3,3,10,03,10,189,27,30,06,045,13*79
$GPRMC,071921.000,A,3030.5547,N,11423.6019,E,12.98,248.55,020708,,,A*5B
$GPGGA,071922.000,3030.5535,N,11423.5982,E,1,07,1.0,39.5,M,-13.6,M,,0000*46
$GPGSA,A,3,20,31,14,29,03,06,32,,,,,,2.6,1.0,2.4*3B
$GPRMC,071922.000,A,3030.5535,N,11423.5982,E,12.75,246.82,020708,,,A*52
$GPGGA,071923.000,3030.5526,N,11423.5946,E,1,07,1.0,39.8,M,-13.6,M,,0000*40
$GPGSA,A,3,20,31,14,29,03,06,32,,,,,,2.6,1.0,2.4*3B
$GPRMC,071923.000,A,3030.5526,N,11423.5946,E,12.29,249.92,020708,,,A*5E
$GPGGA,071924.000,3030.5510,N,11423.5907,E,1,08,0.9,40.3,M,-13.6,M,,0000*45
$GPGSA,A,3,20,31,14,29,03,06,32,30,,,,,1.9,0.9,1.7*3C
$GPRMC,071924.000,A,3030.5510,N,11423.5907,E,12.64,247.79,020708,,,A*5B
$GPGGA,071925.000,3030.5494,N,11423.5870,E,1,08,0.9,39.8,M,-13.6,M,,0000*4D
$GPGSA,A,3,20,31,14,29,03,06,32,30,,,,,1.9,0.9,1.7*3C
$GPRMC,071925.000,A,3030.5494,N,11423.5870,E,12.06,244.36,020708,,,A*5A
$GPGGA,071926.000,3030.5475,N,11423.5835,E,1,09,0.9,38.2,M,-13.6,M,,0000*4A
$GPGSA,A,3,20,16,31,14,29,03,06,32,30,,,,1.6,0.9,1.4*37
$GPGSV,3,1,10,16,66,240,19,31,55,026,26,32,40,258,18,14,35,132,21*72
$GPGSV,3,2,10,20,27,285,38,29,23,058,24,06,20,175,28,23,12,318,*7E
$GPGSV,3,3,10,03,10,189,27,30,06,045,19*73
$GPRMC,071926.000,A,3030.5475,N,11423.5835,E,11.63,240.76,020708,,,A*57
$GPGGA,071927.000,3030.5458,N,11423.5803,E,1,09,0.9,36.8,M,-13.6,M,,0000*45
$GPGSA,A,3,20,16,31,14,29,03,06,32,30,,,,1.6,0.9,1.4*37
$GPRMC,071927.000,A,3030.5458,N,11423.5803,E,10.88,238.23,020708,,,A*57
$GPGGA,071928.000,3030.5440,N,11423.5772,E,1,09,0.9,39.0,M,-13.6,M,,0000*4D
$GPGSA,A,3,20,16,31,14,29,03,06,32,30,,,,1.6,0.9,1.4*37
$GPRMC,071928.000,A,3030.5440,N,11423.5772,E,10.45,237.76,020708,,,A*56
$GPGGA,071929.000,3030.5424,N,11423.5742,E,1,09,0.9,38.0,M,-13.6,M,,0000*4C
$GPGSA,A,3,20,16,31,14,29,03,06,32,30,,,,1.6,0.9,1.4*37
$GPRMC,071929.000,A,3030.5424,N,11423.5742,E,10.49,241.38,020708,,,A*51
$GPGGA,071930.000,3030.5410,N,11423.5710,E,1,09,0.9,37.4,M,-13.6,M,,0000*4F
$GPGSA,A,3,20,16,31,14,29,03,06,32,30,,,,1.6,0.9,1.4*37
$GPRMC,071930.000,A,3030.5410,N,11423.5710,E,10.40,246.48,020708,,,A*50
$GPGGA,071931.000,3030.5400,N,11423.5680,E,1,09,0.9,38.0,M,-13.6,M,,0000*4C
$GPGSA,A,3,20,16,31,14,29,03,06,32,30,,,,1.6,0.9,1.4*37
$GPGSV,3,1,10,16,66,240,20,31,55,026,26,32,40,258,19,14,35,132,21*79
$GPGSV,3,2,10,20,27,285,32,29,23,058,27,06,20,175,28,23,12,318,*77
$GPGSV,3,3,10,03,10,189,26,30,06,045,23*7B
$GPRMC,071931.000,A,3030.5400,N,11423.5680,E,9.07,254.88,020708,,,A*6C
$GPGGA,071932.000,3030.5395,N,11423.5654,E,1,09,0.9,37.7,M,-13.6,M,,0000*45
$GPGSA,A,3,20,16,31,14,29,03,06,32,30,,,,1.6,0.9,1.4*37
$GPRMC,071932.000,A,3030.5395,N,11423.5654,E,8.51,259.59,020708,,,A*6E
$GPGGA,071933.000,3030.5392,N,11423.5627,E,1,09,0.9,38.3,M,-13.6,M,,0000*4C
$GPGSA,A,3,20,16,31,14,29,03,06,32,30,,,,1.6,0.9,1.4*37
$GPRMC,071933.000,A,3030.5392,N,11423.5627,E,8.59,266.66,020708,,,A*64
$GPGGA,071934.000,3030.5393,N,11423.5594,E,1,09,0.9,37.1,M,-13.6,M,,0000*4C
$GPGSA,A,3,20,16,31,14,29,03,06,32,30,,,,1.6,0.9,1.4*37
$GPRMC,071934.000,A,3030.5393,N,11423.5594,E,9.40,269.81,020708,,,A*66
$GPGGA,071935.000,3030.5396,N,11423.5564,E,1,09,0.9,36.8,M,-13.6,M,,0000*4F
$GPGSA,A,3,20,16,31,14,29,03,06,32,30,,,,1.6,0.9,1.4*37
$GPRMC,071935.000,A,3030.5396,N,11423.5564,E,9.33,274.72,020708,,,A*69
$GPGGA,071936.000,3030.5404,N,11423.5531,E,1,09,0.9,35.3,M,-13.6,M,,0000*48
$GPGSA,A,3,20,16,31,14,29,03,06,32,30,,,,1.6,0.9,1.4*37
$GPGSV,3,1,10,16,66,240,20,31,55,026,24,32,40,258,18,14,35,132,21*7A
$GPGSV,3,2,10,20,27,285,23,29,23,058,27,06,20,175,22,23,12,318,14*78
$GPGSV,3,3,10,03,10,189,21,30,06,045,24*7B
$GPRMC,071936.000,A,3030.5404,N,11423.5531,E,10.14,282.71,020708,,,A*51
$GPGGA,071937.000,3030.5410,N,11423.5502,E,1,09,0.9,35.8,M,-13.6,M,,0000*47
$GPGSA,A,3,20,16,31,14,29,03,06,32,30,,,,1.6,0.9,1.4*37
$GPRMC,071937.000,A,3030.5410,N,11423.5502,E,9.82,280.11,020708,,,A*66
$GPGGA,071938.000,3030.5421,N,11423.5474,E,1,08,1.0,37.4,M,-13.6,M,,0000*4D
$GPGSA,A,3,20,16,31,14,29,03,06,32,,,,,2.0,1.0,1.8*35
$GPRMC,071938.000,A,3030.5421,N,11423.5474,E,9.75,286.07,020708,,,A*62
$GPGGA,071939.000,3030.5430,N,11423.5443,E,1,08,1.0,36.2,M,-13.6,M,,0000*4F
$GPGSA,A,3,20,16,31,14,29,03,06,32,,,,,2.0,1.0,1.8*35
$GPRMC,071939.000,A,3030.5430,N,11423.5443,E,9.51,286.12,020708,,,A*65
$GPGGA,071940.000,3030.5444,N,11423.5413,E,1,07,1.0,37.5,M,-13.6,M,,0000*4E
$GPGSA,A,3,20,16,14,29,03,06,32,,,,,,2.1,1.0,1.9*37
$GPRMC,071940.000,A,3030.5444,N,11423.5413,E,10.00,287.53,020708,,,A*55
$GPGGA,071941.000,3030.5457,N,11423.5378,E,1,07,1.0,39.0,M,-13.6,M,,0000*4C
$GPGSA,A,3,20,16,14,29,03,06,32,,,,,,2.1,1.0,1.9*37
$GPGSV,3,1,10,16,66,240,20,31,55,026,11,32,40,258,26,14,35,132,21*71
$GPGSV,3,2,10,20,27,285,22,29,23,058,24,06,20,175,23,23,12,318,17*78
$GPGSV,3,3,10,03,10,189,32,30,06,045,*7F
$GPRMC,071941.000,A,3030.5457,N,11423.5378,E,11.64,288.10,020708,,,A*57
$GPGGA,071942.000,3030.5472,N,11423.5342,E,1,07,1.0,39.5,M,-13.6,M,,0000*44
$GPGSA,A,3,20,16,14,29,03,06,32,,,,,,2.1,1.0,1.9*37
$GPRMC,071942.000,A,3030.5472,N,11423.5342,E,12.26,293.12,020708,,,A*57
$GPGGA,071943.000,3030.5489,N,11423.5304,E,1,06,2.1,40.3,M,-13.6,M,,0000*48
$GPGSA,A,3,20,16,14,03,06,32,,,,,,,3.2,2.1,2.4*32
$GPRMC,071943.000,A,3030.5489,N,11423.5304,E,12.25,295.43,020708,,,A*51
$GPGGA,071944.000,3030.5508,N,11423.5268,E,1,06,2.1,41.8,M,-13.6,M,,0000*46
$GPGSA,A,3,20,16,14,03,06,32,,,,,,,3.2,2.1,2.4*32
$GPRMC,071944.000,A,3030.5508,N,11423.5268,E,11.84,296.22,020708,,,A*59
$GPGGA,071945.000,3030.5546,N,11423.5238,E,1,07,1.4,44.8,M,-13.6,M,,0000*4A
$GPGSA,A,3,20,16,31,14,03,06,32,,,,,,2.7,1.4,2.3*35
$GPRMC,071945.000,A,3030.5546,N,11423.5238,E,10.67,302.58,020708,,,A*5A
$GPGGA,071946.000,3030.5580,N,11423.5211,E,1,07,1.4,44.1,M,-13.6,M,,0000*41
$GPGSA,A,3,20,16,31,14,03,06,32,,,,,,2.7,1.4,2.3*35
$GPGSV,3,1,10,16,66,240,19,31,55,026,25,32,40,258,29,14,35,132,27*75
$GPGSV,3,2,10,20,27,285,22,29,23,058,,06,20,175,23,23,12,318,15*7C
$GPGSV,3,3,10,03,10,189,25,30,06,045,*79
$GPRMC,071946.000,A,3030.5580,N,11423.5211,E,8.06,304.54,020708,,,A*6C
$GPGGA,071947.000,3030.5586,N,11423.5193,E,1,07,1.4,42.6,M,-13.6,M,,0000*4E
$GPGSA,A,3,20,16,31,14,03,06,32,,,,,,2.7,1.4,2.3*35
$GPRMC,071947.000,A,3030.5586,N,11423.5193,E,4.98,299.78,020708,,,A*62
$GPGGA,071948.000,3030.5581,N,11423.5175,E,1,07,1.4,43.7,M,-13.6,M,,0000*4E
$GPGSA,A,3,20,16,31,14,03,06,32,,,,,,2.7,1.4,2.3*35
$GPRMC,071948.000,A,3030.5581,N,11423.5175,E,2.34,287.22,020708,,,A*62
$GPGGA,071949.000,3030.5580,N,11423.5166,E,1,07,1.4,46.1,M,-13.6,M,,0000*4F
$GPGSA,A,3,20,16,31,14,03,06,32,,,,,,2.7,1.4,2.3*35
$GPRMC,071949.000,A,3030.5580,N,11423.5166,E,0.76,288.89,020708,,,A*6A
$GPGGA,071950.000,3030.5578,N,11423.5161,E,1,07,1.4,48.3,M,-13.6,M,,0000*4B
$GPGSA,A,3,20,16,31,14,03,06,32,,,,,,2.7,1.4,2.3*35
$GPRMC,071950.000,A,3030.5578,N,11423.5161,E,0.00,,020708,,,A*7E
$GPGGA,071951.000,3030.5578,N,11423.5161,E,1,07,1.4,48.3,M,-13.6,M,,0000*4A
$GPGSA,A,3,20,16,31,14,03,06,32,,,,,,2.7,1.4,2.3*35
$GPGSV,3,1,10,16,66,240,24,31,55,026,27,32,40,258,32,14,35,132,27*73
$GPGSV,3,2,10,20,27,285,21,29,23,058,,06,20,175,23,23,12,318,14*7E
$GPGSV,3,3,10,03,10,189,19,30,06,045,*76
$GPRMC,071951.000,A,3030.5578,N,11423.5161,E,0.00,,020708,,,A*7F
$GPGGA,071952.000,3030.5578,N,11423.5161,E,1,07,1.4,48.3,M,-13.6,M,,0000*49
$GPGSA,A,3,20,16,31,14,03,06,32,,,,,,2.7,1.4,2.3*35
$GPRMC,071952.000,A,3030.5578,N,11423.5161,E,0.00,,020708,,,A*7C
$GPGGA,071953.000,3030.5578,N,11423.5161,E,1,07,1.4,48.3,M,-13.6,M,,0000*48
$GPGSA,A,3,20,16,31,14,03,06,32,,,,,,2.7,1.4,2.3*35
$GPRMC,071953.000,A,3030.5578,N,11423.5161,E,0.00,,020708,,,A*7D
$GPGGA,071954.000,3030.5578,N,11423.5161,E,1,07,1.4,48.3,M,-13.6,M,,0000*4F
$GPGSA,A,3,20,16,31,14,03,06,32,,,,,,2.7,1.4,2.3*35
$GPRMC,071954.000,A,3030.5578,N,11423.5161,E,0.00,,020708,,,A*7A
$GPGGA,071955.000,3030.5578,N,11423.5161,E,1,07,1.4,48.3,M,-13.6,M,,0000*4E
$GPGSA,A,3,20,16,31,14,03,06,32,,,,,,2.7,1.4,2.3*35
$GPRMC,071955.000,A,3030.5578,N,11423.5161,E,0.00,,020708,,,A*7B
$GPGGA,071956.000,3030.5578,N,11423.5161,E,1,07,1.4,48.3,M,-13.6,M,,0000*4D
$GPGSA,A,3,20,16,31,14,03,06,32,,,,,,2.7,1.4,2.3*35
$GPGSV,3,1,10,16,66,240,24,31,55,026,28,32,40,258,32,14,35,132,25*7E
$GPGSV,3,2,10,20,27,285,21,29,23,058,,06,20,175,23,23,12,318,15*7F
$GPGSV,3,3,10,03,10,189,19,30,06,045,*76
$GPRMC,071956.000,A,3030.5578,N,11423.5161,E,0.00,,020708,,,A*78
$GPGGA,071957.000,3030.5578,N,11423.5161,E,1,07,1.4,48.3,M,-13.6,M,,0000*4C
$GPGSA,A,3,20,16,31,14,03,06,32,,,,,,2.7,1.4,2.3*35
$GPRMC,071957.000,A,3030.5578,N,11423.5161,E,0.00,,020708,,,A*79
$GPGGA,071958.000,3030.5578,N,11423.5161,E,1,07,1.4,48.3,M,-13.6,M,,0000*43
$GPGSA,A,3,20,16,31,14,03,06,32,,,,,,2.7,1.4,2.3*35
$GPRMC,071958.000,A,3030.5578,N,11423.5161,E,0.00,,020708,,,A*76
$GPGGA,071959.000,3030.5578,N,11423.5161,E,1,07,1.4,48.3,M,-13.6,M,,0000*42
$GPGSA,A,3,20,16,31,14,03,06,32,,,,,,2.7,1.4,2.3*35
$GPRMC,071959.000,A,3030.5578,N,11423.5161,E,0.00,,020708,,,A*77
$GPGGA,072000.000,3030.5578,N,11423.5161,E,1,06,1.9,48.3,M,-13.6,M,,0000*48
$GPGSA,A,3,20,31,14,03,06,32,,,,,,,4.5,1.9,4.1*3F
$GPRMC,072000.000,A,3030.5578,N,11423.5161,E,0.00,,020708,,,A*71
$GPGGA,072001.000,3030.5578,N,11423.5161,E,1,07,1.4,48.3,M,-13.6,M,,0000*45
$GPGSA,A,3,20,16,31,14,03,06,32,,,,,,2.7,1.4,2.3*35
$GPGSV,3,1,10,16,66,240,17,31,55,026,28,32,40,258,32,14,35,132,25*7E
$GPGSV,3,2,10,20,27,285,22,29,23,058,,06,20,175,23,23,12,318,15*7C
$GPGSV,3,3,10,03,10,189,21,30,06,045,*7D
$GPRMC,072001.000,A,3030.5578,N,11423.5161,E,0.00,,020708,,,A*70
$GPGGA,072002.000,3030.5578,N,11423.5161,E,1,07,1.4,48.3,M,-13.6,M,,0000*46
$GPGSA,A,3,20,16,31,14,03,06,32,,,,,,2.7,1.4,2.3*35
$GPRMC,072002.000,A,3030.5578,N,11423.5161,E,0.00,,020708,,,A*73
$GPGGA,072003.000,3030.5578,N,11423.5161,E,1,07,1.4,48.3,M,-13.6,M,,0000*47
$GPGSA,A,3,20,16,31,14,03,06,32,,,,,,2.7,1.4,2.3*35
$GPRMC,072003.000,A,3030.5578,N,11423.5161,E,0.00,,020708,,,A*72
$GPGGA,072004.000,3030.5578,N,11423.5161,E,1,07,1.4,48.3,M,-13.6,M,,0000*40
$GPGSA,A,3,20,16,31,14,03,06,32,,,,,,2.7,1.4,2.3*35
$GPRMC,072004.000,A,3030.5578,N,11423.5161,E,0.00,,020708,,,A*75
$GPGGA,072005.000,3030.5599,N,11423.5146,E,1,07,1.4,44.3,M,-13.6,M,,0000*47
$GPGSA,A,3,20,16,31,14,03,06,32,,,,,,2.7,1.4,2.3*35
$GPRMC,072005.000,A,3030.5599,N,11423.5146,E,2.84,294.13,020708,,,A*63
$GPGGA,072006.000,3030.5602,N,11423.5135,E,1,07,1.4,43.9,M,-13.6,M,,0000*4C
$GPGSA,A,3,20,16,31,14,03,06,32,,,,,,2.7,1.4,2.3*35
$GPGSV,3,1,10,16,66,240,20,31,55,026,28,32,40,258,32,14,35,132,25*7A
$GPGSV,3,2,10,20,27,285,20,29,23,058,,06,20,175,24,23,12,318,15*79
$GPGSV,3,3,10,03,10,189,22,30,06,045,*7E
$GPRMC,072006.000,A,3030.5602,N,11423.5135,E,4.10,293.10,020708,,,A*6A
$GPGGA,072007.000,3030.5609,N,11423.5119,E,1,07,1.4,45.4,M,-13.6,M,,0000*43
$GPGSA,A,3,20,16,31,14,03,06,32,,,,,,2.7,1.4,2.3*35
$GPRMC,072007.000,A,3030.5609,N,11423.5119,E,5.79,294.25,020708,,,A*61
$GPGGA,072008.000,3030.5622,N,11423.5098,E,1,07,1.4,43.9,M,-13.6,M,,0000*46
$GPGSA,A,3,20,16,31,14,03,06,32,,,,,,2.7,1.4,2.3*35
$GPRMC,072008.000,A,3030.5622,N,11423.5098,E,7.24,295.85,020708,,,A*6E
$GPGGA,072009.000,3030.5638,N,11423.5069,E,1,07,1.4,41.9,M,-13.6,M,,0000*40
$GPGSA,A,3,20,16,31,14,03,06,32,,,,,,2.7,1.4,2.3*35
$GPRMC,072009.000,A,3030.5638,N,11423.5069,E,8.79,294.19,020708,,,A*69
$GPGGA,072010.000,3030.5653,N,11423.5038,E,1,07,1.4,40.3,M,-13.6,M,,0000*4A
$GPGSA,A,3,20,16,31,14,03,06,32,,,,,,2.7,1.4,2.3*35
$GPRMC,072010.000,A,3030.5653,N,11423.5038,E,9.08,295.63,020708,,,A*63
$GPGGA,072011.000,3030.5666,N,11423.5009,E,1,07,1.4,39.8,M,-13.6,M,,0000*4A
$GPGSA,A,3,20,16,31,14,03,06,32,,,,,,2.7,1.4,2.3*35
$GPGSV,3,1,10,16,66,240,21,31,55,026,29,32,40,258,31,14,35,132,17*78
$GPGSV,3,2,10,20,27,285,21,29,23,058,,06,20,175,25,23,12,318,14*78
$GPGSV,3,3,10,03,10,189,15,30,06,045,*7A
$GPRMC,072011.000,A,3030.5666,N,11423.5009,E,9.37,297.26,020708,,,A*69
$GPGGA,072012.000,3030.5682,N,11423.4978,E,1,07,1.4,40.2,M,-13.6,M,,0000*49
$GPGSA,A,3,20,16,31,14,03,06,32,,,,,,2.7,1.4,2.3*35
$GPRMC,072012.000,A,3030.5682,N,11423.4978,E,9.47,294.97,020708,,,A*60
$GPGGA,072013.000,3030.5691,N,11423.4941,E,1,07,1.4,43.7,M,-13.6,M,,0000*46
$GPGSA,A,3,20,16,31,14,03,06,32,,,,,,2.7,1.4,2.3*35
$GPRMC,072013.000,A,3030.5691,N,11423.4941,E,10.53,294.35,020708,,,A*5C
$GPGGA,072014.000,3030.5706,N,11423.4905,E,1,07,1.4,42.6,M,-13.6,M,,0000*4E
$GPGSA,A,3,20,16,31,14,03,06,32,,,,,,2.7,1.4,2.3*35
$GPRMC,072014.000,A,3030.5706,N,11423.4905,E,10.85,291.07,020708,,,A*5B
$GPGGA,072015.000,3030.5720,N,11423.4872,E,1,07,1.4,43.6,M,-13.6,M,,0000*4B
$GPGSA,A,3,20,16,31,14,03,06,32,,,,,,2.7,1.4,2.3*35
$GPRMC,072015.000,A,3030.5720,N,11423.4872,E,11.32,296.57,020708,,,A*50
$GPGGA,072016.000,3030.5735,N,11423.4837,E,1,07,1.4,43.0,M,-13.6,M,,0000*4B
$GPGSA,A,3,20,16,31,14,03,06,32,,,,,,2.7,1.4,2.3*35
$GPGSV,3,1,10,16,66,240,15,31,55,026,23,32,40,258,26,14,35,132,18*7C
$GPGSV,3,2,10,20,27,285,20,29,23,058,,06,20,175,19,23,12,318,14*76
$GPGSV,3,3,10,03,10,189,12,30,06,045,*7D
$GPRMC,072016.000,A,3030.5735,N,11423.4837,E,11.75,300.32,020708,,,A*58
$GPGGA,072017.000,3030.5750,N,11423.4801,E,1,05,1.5,44.8,M,-13.6,M,,0000*40
$GPGSA,A,3,20,16,31,06,32,,,,,,,,3.0,1.5,2.6*31
$GPRMC,072017.000,A,3030.5750,N,11423.4801,E,12.82,300.25,020708,,,A*52
$GPGGA,072018.000,3030.5764,N,11423.4770,E,1,07,1.4,45.0,M,-13.6,M,,0000*4B
$GPGSA,A,3,20,16,31,14,03,06,32,,,,,,2.7,1.4,2.3*35
$GPRMC,072018.000,A,3030.5764,N,11423.4770,E,12.22,301.27,020708,,,A*5A
$GPGGA,072019.000,3030.5777,N,11423.4737,E,1,05,1.5,47.7,M,-13.6,M,,0000*4D
$GPGSA,A,3,20,16,31,06,32,,,,,,,,3.0,1.5,2.6*31
$GPRMC,072019.000,A,3030.5777,N,11423.4737,E,11.31,301.76,020708,,,A*5F
$GPGGA,072020.000,3030.5792,N,11423.4710,E,1,07,1.4,46.2,M,-13.6,M,,0000*4E
$GPGSA,A,3,20,16,31,14,03,06,32,,,,,,2.7,1.4,2.3*35
$GPRMC,072020.000,A,3030.5792,N,11423.4710,E,10.39,303.39,020708,,,A*5B
$GPGGA,072021.000,3030.5807,N,11423.4684,E,1,06,1.4,45.5,M,-13.6,M,,0000*45
$GPGSA,A,3,20,16,31,14,06,32,,,,,,,2.9,1.4,2.6*3D
$GPGSV,3,1,10,16,66,240,18,31,55,026,28,32,40,258,26,14,35,132,17*75
$GPGSV,3,2,10,20,27,285,20,29,23,058,,06,20,175,14,23,12,318,14*7B
$GPGSV,3,3,10,03,10,189,12,30,06,045,*7D
$GPRMC,072021.000,A,3030.5807,N,11423.4684,E,10.38,302.73,020708,,,A*5B
$GPGGA,072022.000,3030.5816,N,11423.4654,E,1,06,1.4,46.3,M,-13.6,M,,0000*4E
$GPGSA,A,3,20,16,31,14,06,32,,,,,,,2.9,1.4,2.6*3D
$GPRMC,072022.000,A,3030.5816,N,11423.4654,E,9.46,293.57,020708,,,A*6B
$GPGGA,072023.000,3030.5820,N,11423.4627,E,1,06,1.4,49.0,M,-13.6,M,,0000*42
$GPGSA,A,3,20,16,31,14,06,32,,,,,,,2.9,1.4,2.6*3D
$GPRMC,072023.000,A,3030.5820,N,11423.4627,E,8.31,290.95,020708,,,A*67
$GPGGA,072024.000,3030.5830,N,11423.4601,E,1,07,1.0,49.1,M,-13.6,M,,0000*44
$GPGSA,A,3,20,16,31,14,29,06,32,,,,,,2.3,1.0,2.0*3E
$GPRMC,072024.000,A,3030.5830,N,11423.4601,E,8.26,291.49,020708,,,A*63
$GPGGA,072025.000,3030.5842,N,11423.4578,E,1,06,1.3,47.2,M,-13.6,M,,0000*42
$GPGSA,A,3,16,31,14,29,06,32,,,,,,,2.9,1.3,2.5*30
$GPRMC,072025.000,A,3030.5842,N,11423.4578,E,8.09,294.12,020708,,,A*6C
$GPGGA,072026.000,3030.5847,N,11423.4558,E,1,06,1.3,46.3,M,-13.6,M,,0000*46
$GPGSA,A,3,16,31,14,29,06,32,,,,,,,2.9,1.3,2.5*30
$GPGSV,3,1,10,16,66,240,19,31,55,026,30,32,40,258,27,14,35,132,18*73
$GPGSV,3,2,10,20,27,285,19,29,23,058,27,06,20,175,13,23,12,318,15*72
$GPGSV,3,3,10,03,10,189,,30,06,045,*7E
$GPRMC,072026.000,A,3030.5847,N,11423.4558,E,7.93,295.76,020708,,,A*67
$GPGGA,072027.000,3030.5855,N,11423.4530,E,1,07,1.0,47.8,M,-13.6,M,,0000*42
$GPGSA,A,3,20,16,31,14,29,06,32,,,,,,2.3,1.0,2.0*3E
$GPRMC,072027.000,A,3030.5855,N,11423.4530,E,8.50,297.62,020708,,,A*6C
$GPGGA,072028.000,3030.5865,N,11423.4503,E,1,07,1.0,48.7,M,-13.6,M,,0000*4E
$GPGSA,A,3,20,16,31,14,29,06,32,,,,,,2.3,1.0,2.0*3E
$GPRMC,072028.000,A,3030.5865,N,11423.4503,E,7.96,301.38,020708,,,A*64
$GPGGA,072029.000,3030.5881,N,11423.4481,E,1,06,1.3,47.7,M,-13.6,M,,0000*43
$GPGSA,A,3,20,16,31,14,29,32,,,,,,,2.6,1.3,2.3*3D
$GPRMC,072029.000,A,3030.5881,N,11423.4481,E,8.39,303.86,020708,,,A*69
$GPGGA,072030.000,3030.5891,N,11423.4460,E,1,05,1.5,48.3,M,-13.6,M,,0000*4B
$GPGSA,A,3,16,31,14,29,32,,,,,,,,3.3,1.5,3.0*3F
$GPRMC,072030.000,A,3030.5891,N,11423.4460,E,7.76,303.62,020708,,,A*61
$GPGGA,072031.000,3030.5907,N,11423.4437,E,1,06,1.3,47.9,M,-13.6,M,,0000*46
$GPGSA,A,3,20,16,31,14,29,32,,,,,,,2.6,1.3,2.3*3D
$GPGSV,3,1,10,16,66,240,21,31,55,026,27,32,40,258,23,14,35,132,19*7B
$GPGSV,3,2,10,20,27,285,19,29,23,058,19,06,20,175,,23,12,318,14*7C
$GPGSV,3,3,10,03,10,189,,30,06,045,*7E
$GPRMC,072031.000,A,3030.5907,N,11423.4437,E,7.94,304.77,020708,,,A*63
$GPGGA,072032.000,3030.5916,N,11423.4419,E,1,06,1.3,45.3,M,-13.6,M,,0000*41
$GPGSA,A,3,20,16,31,14,29,32,,,,,,,2.6,1.3,2.3*3D
$GPRMC,072032.000,A,3030.5916,N,11423.4419,E,7.25,302.20,020708,,,A*62
$GPGGA,072033.000,3030.5932,N,11423.4395,E,1,06,1.3,43.7,M,-13.6,M,,0000*47
$GPGSA,A,3,20,16,31,14,29,32,,,,,,,2.6,1.3,2.3*3D
$GPRMC,072033.000,A,3030.5932,N,11423.4395,E,7.33,304.85,020708,,,A*68
$GPGGA,072034.000,3030.5944,N,11423.4373,E,1,06,1.3,42.6,M,-13.6,M,,0000*49
$GPGSA,A,3,20,16,31,14,29,32,,,,,,,2.6,1.3,2.3*3D
$GPRMC,072034.000,A,3030.5944,N,11423.4373,E,6.68,301.74,020708,,,A*62
$GPGGA,072035.000,3030.5958,N,11423.4346,E,1,06,1.3,40.3,M,-13.6,M,,0000*44
$GPGSA,A,3,20,16,31,14,29,32,,,,,,,2.6,1.3,2.3*3D
$GPRMC,072035.000,A,3030.5958,N,11423.4346,E,7.82,297.12,020708,,,A*63
$GPGGA,072036.000,3030.5972,N,11423.4323,E,1,06,1.3,38.9,M,-13.6,M,,0000*49
$GPGSA,A,3,20,16,31,14,29,32,,,,,,,2.6,1.3,2.3*3D
$GPGSV,3,1,10,16,66,240,21,31,55,026,28,32,40,258,24,14,35,132,21*78
$GPGSV,3,2,10,20,27,285,20,29,23,058,17,06,20,175,,23,12,318,13*7F
$GPGSV,3,3,10,03,10,189,,30,06,045,*7E
$GPRMC,072036.000,A,3030.5972,N,11423.4323,E,7.40,297.11,020708,,,A*66
$GPGGA,072037.000,3030.5988,N,11423.4296,E,1,07,1.0,34.9,M,-13.6,M,,0000*4C
$GPGSA,A,3,20,16,31,14,29,06,32,,,,,,2.3,1.0,2.0*3E
$GPRMC,072037.000,A,3030.5988,N,11423.4296,E,6.87,301.26,020708,,,A*6D
$GPGGA,072038.000,3030.5995,N,11423.4279,E,1,07,1.0,34.2,M,-13.6,M,,0000*45
$GPGSA,A,3,20,16,31,14,29,06,32,,,,,,2.3,1.0,2.0*3E
$GPRMC,072038.000,A,3030.5995,N,11423.4279,E,6.66,299.30,020708,,,A*67
$GPGGA,072039.000,3030.6004,N,11423.4263,E,1,07,1.0,35.5,M,-13.6,M,,0000*4B
$GPGSA,A,3,20,16,31,14,29,06,32,,,,,,2.3,1.0,2.0*3E
$GPRMC,072039.000,A,3030.6004,N,11423.4263,E,6.18,301.35,020708,,,A*63
$GPGGA,072040.000,3030.6014,N,11423.4245,E,1,06,1.3,36.1,M,-13.6,M,,0000*45
$GPGSA,A,3,20,16,31,14,30,32,,,,,,,2.2,1.3,1.8*39
$GPRMC,072040.000,A,3030.6014,N,11423.4245,E,6.25,300.32,020708,,,A*60
$GPGGA,072041.000,3030.6022,N,11423.4224,E,1,07,1.2,36.2,M,-13.6,M,,0000*45
$GPGSA,A,3,20,16,31,14,29,30,32,,,,,,2.2,1.2,1.8*33
$GPGSV,3,1,10,16,66,240,21,31,55,026,29,32,40,258,24,14,35,132,22*7A
$GPGSV,3,2,10,20,27,285,22,29,23,058,21,06,20,175,,23,12,318,14*7F
$GPGSV,3,3,10,03,10,189,,30,06,045,24*78
$GPRMC,072041.000,A,3030.6022,N,11423.4224,E,6.26,293.18,020708,,,A*63
$GPGGA,072042.000,3030.6030,N,11423.4202,E,1,07,1.2,36.2,M,-13.6,M,,0000*41
$GPGSA,A,3,20,16,31,14,29,30,32,,,,,,2.2,1.2,1.8*33
$GPRMC,072042.000,A,3030.6030,N,11423.4202,E,6.18,290.87,020708,,,A*6F
$GPGGA,072043.000,3030.6037,N,11423.4183,E,1,07,1.2,37.9,M,-13.6,M,,0000*47
$GPGSA,A,3,20,16,31,14,29,30,32,,,,,,2.2,1.2,1.8*33
$GPRMC,072043.000,A,3030.6037,N,11423.4183,E,4.57,293.32,020708,,,A*67
$GPGGA,072044.000,3030.6049,N,11423.4169,E,1,07,1.0,37.8,M,-13.6,M,,0000*4E
$GPGSA,A,3,20,16,31,14,06,30,32,,,,,,1.9,1.0,1.6*3A
$GPRMC,072044.000,A,3030.6049,N,11423.4169,E,4.09,289.81,020708,,,A*65
$GPGGA,072045.000,3030.6054,N,11423.4158,E,1,08,0.9,36.9,M,-13.6,M,,0000*46
$GPGSA,A,3,20,16,31,14,29,06,30,32,,,,,1.8,0.9,1.6*38
$GPRMC,072045.000,A,3030.6054,N,11423.4158,E,3.23,271.99,020708,,,A*6B
$GPGGA,072046.000,3030.6065,N,11423.4146,E,1,08,0.9,38.2,M,-13.6,M,,0000*4D
$GPGSA,A,3,20,16,31,14,29,06,30,32,,,,,1.8,0.9,1.6*38
$GPGSV,3,1,10,16,66,240,20,31,55,026,25,32,40,258,24,14,35,132,21*74
$GPGSV,3,2,10,20,27,285,33,29,23,058,21,06,20,175,17,23,12,318,42*7A
$GPGSV,3,3,10,03,10,189,,30,06,045,16*79
$GPRMC,072046.000,A,3030.6065,N,11423.4146,E,3.22,297.88,020708,,,A*6C
$GPGGA,072047.000,3030.6072,N,11423.4127,E,1,07,1.0,37.2,M,-13.6,M,,0000*45
$GPGSA,A,3,20,16,31,14,29,06,32,,,,,,2.3,1.0,2.0*3E
$GPRMC,072047.000,A,3030.6072,N,11423.4127,E,5.37,290.98,020708,,,A*68
$GPGGA,072048.000,3030.6081,N,11423.4109,E,1,07,1.0,36.9,M,-13.6,M,,0000*40
$GPGSA,A,3,20,16,31,14,29,06,32,,,,,,2.3,1.0,2.0*3E
$GPRMC,072048.000,A,3030.6081,N,11423.4109,E,5.70,295.40,020708,,,A*64
$GPGGA,072049.000,3030.6078,N,11423.4097,E,1,07,1.0,39.1,M,-13.6,M,,0000*46
$GPGSA,A,3,20,16,31,14,29,06,32,,,,,,2.3,1.0,2.0*3E
$GPRMC,072049.000,A,3030.6078,N,11423.4097,E,5.67,293.55,020708,,,A*61
$GPGGA,072050.000,3030.6084,N,11423.4077,E,1,07,1.0,38.6,M,-13.6,M,,0000*45
$GPGSA,A,3,20,16,31,14,29,06,32,,,,,,2.3,1.0,2.0*3E
$GPRMC,072050.000,A,3030.6084,N,11423.4077,E,6.28,293.47,020708,,,A*6F
$GPGGA,072051.000,3030.6096,N,11423.4059,E,1,07,1.0,37.3,M,-13.6,M,,0000*41
$GPGSA,A,3,20,16,31,14,29,06,32,,,,,,2.3,1.0,2.0*3E
$GPGSV,3,1,10,16,66,240,19,31,55,026,29,32,40,258,24,14,35,132,24*77
$GPGSV,3,2,10,20,27,285,22,29,23,058,21,06,20,175,18,23,12,318,23*72
$GPGSV,3,3,10,03,10,189,,30,06,045,*7E
$GPRMC,072051.000,A,3030.6096,N,11423.4059,E,7.16,295.76,020708,,,A*69
$GPGGA,072052.000,3030.6112,N,11423.4038,E,1,08,0.9,36.1,M,-13.6,M,,0000*4C
$GPGSA,A,3,20,16,31,14,29,06,30,32,,,,,1.8,0.9,1.6*38
$GPRMC,072052.000,A,3030.6112,N,11423.4038,E,8.03,296.27,020708,,,A*6C
$GPGGA,072053.000,3030.6133,N,11423.4018,E,1,08,0.9,36.6,M,-13.6,M,,0000*4B
$GPGSA,A,3,20,16,31,14,29,06,30,32,,,,,1.8,0.9,1.6*38
$GPRMC,072053.000,A,3030.6133,N,11423.4018,E,8.44,305.10,020708,,,A*60
$GPGGA,072054.000,3030.6137,N,11423.3990,E,1,08,0.9,38.6,M,-13.6,M,,0000*48
$GPGSA,A,3,20,16,31,14,29,06,30,32,,,,,1.8,0.9,1.6*38
$GPRMC,072054.000,A,3030.6137,N,11423.3990,E,8.72,293.23,020708,,,A*66
$GPGGA,072055.000,3030.6156,N,11423.3955,E,1,08,0.9,41.2,M,-13.6,M,,0000*4D
$GPGSA,A,3,20,16,31,14,29,06,30,32,,,,,1.8,0.9,1.6*38
$GPRMC,072055.000,A,3030.6156,N,11423.3955,E,11.02,297.91,020708,,,A*5B
$GPGGA,072056.000,3030.6186,N,11423.3908,E,1,07,1.2,41.8,M,-13.6,M,,0000*44
$GPGSA,A,3,20,16,31,14,29,30,32,,,,,,2.2,1.2,1.8*33
$GPGSV,3,1,10,16,66,240,20,31,55,026,26,32,40,258,24,14,35,132,27*71
$GPGSV,3,2,10,20,27,285,21,29,23,058,21,06,20,175,14,23,12,318,22*7C
$GPGSV,3,3,10,03,10,189,16,30,06,045,15*7D
$GPRMC,072056.000,A,3030.6186,N,11423.3908,E,14.53,306.38,020708,,,A*56
$GPGGA,072057.000,3030.6220,N,11423.3859,E,1,08,0.9,41.5,M,-13.6,M,,0000*47
$GPGSA,A,3,20,16,31,14,29,06,30,32,,,,,1.8,0.9,1.6*38
$GPRMC,072057.000,A,3030.6220,N,11423.3859,E,15.77,308.45,020708,,,A*5E
$GPGGA,072058.000,3030.6256,N,11423.3810,E,1,08,0.9,40.4,M,-13.6,M,,0000*44
$GPGSA,A,3,20,16,31,14,29,06,30,32,,,,,1.8,0.9,1.6*38
$GPRMC,072058.000,A,3030.6256,N,11423.3810,E,16.14,308.45,020708,,,A*5B
$GPGGA,072059.000,3030.6281,N,11423.3771,E,1,07,1.0,41.3,M,-13.6,M,,0000*46
$GPGSA,A,3,20,16,31,14,29,06,32,,,,,,2.3,1.0,2.0*3E
$GPRMC,072059.000,A,3030.6281,N,11423.3771,E,16.14,310.35,020708,,,A*56
$GPGGA,072100.000,3030.6311,N,11423.3727,E,1,07,1.0,41.5,M,-13.6,M,,0000*46
$GPGSA,A,3,20,16,31,14,29,06,32,,,,,,2.3,1.0,2.0*3E
$GPRMC,072100.000,A,3030.6311,N,11423.3727,E,16.82,310.70,020708,,,A*5E
$GPGGA,072101.000,3030.6341,N,11423.3680,E,1,06,1.3,42.5,M,-13.6,M,,0000*4F
$GPGSA,A,3,20,16,31,14,29,32,,,,,,,2.6,1.3,2.3*3D
$GPGSV,3,1,10,16,66,240,19,31,55,026,31,32,40,258,25,14,35,132,27*7C
$GPGSV,3,2,10,20,27,285,20,29,23,058,25,06,20,175,23,23,12,318,19*75
$GPGSV,3,3,10,03,10,189,18,30,06,045,14*72
$GPRMC,072101.000,A,3030.6341,N,11423.3680,E,17.70,310.35,020708,,,A*5B
$GPGGA,072102.000,3030.6377,N,11423.3635,E,1,07,1.0,41.9,M,-13.6,M,,0000*4A
$GPGSA,A,3,20,16,31,14,29,06,32,,,,,,2.3,1.0,2.0*3E
$GPRMC,072102.000,A,3030.6377,N,11423.3635,E,18.20,310.27,020708,,,A*5A
$GPGGA,072103.000,3030.6408,N,11423.3580,E,1,07,1.0,43.4,M,-13.6,M,,0000*46
$GPGSA,A,3,20,16,31,14,29,06,32,,,,,,2.3,1.0,2.0*3E
$GPRMC,072103.000,A,3030.6408,N,11423.3580,E,19.02,309.31,020708,,,A*57
$GPGGA,072104.000,3030.6443,N,11423.3525,E,1,07,1.0,43.4,M,-13.6,M,,0000*41
$GPGSA,A,3,20,16,31,14,29,06,32,,,,,,2.3,1.0,2.0*3E
$GPRMC,072104.000,A,3030.6443,N,11423.3525,E,19.71,308.44,020708,,,A*57
$GPGGA,072105.000,3030.6480,N,11423.3469,E,1,07,1.0,43.8,M,-13.6,M,,0000*4A
$GPGSA,A,3,20,16,31,14,29,06,32,,,,,,2.3,1.0,2.0*3E
$GPRMC,072105.000,A,3030.6480,N,11423.3469,E,19.68,310.12,020708,,,A*52
$GPGGA,072106.000,3030.6518,N,11423.3412,E,1,07,1.0,42.6,M,-13.6,M,,0000*4A
$GPGSA,A,3,20,16,31,14,29,06,32,,,,,,2.3,1.0,2.0*3E
$GPGSV,3,1,10,16,66,240,18,31,55,026,25,32,40,258,19,14,35,132,21*71
$GPGSV,3,2,10,20,27,285,21,29,23,058,25,06,20,175,16,23,12,318,17*7C
$GPGSV,3,3,10,03,10,189,,30,06,045,*7E
$GPRMC,072106.000,A,3030.6518,N,11423.3412,E,19.43,309.56,020708,,,A*5C
$GPGGA,072107.000,3030.6559,N,11423.3364,E,1,07,1.0,43.8,M,-13.6,M,,0000*47
$GPGSA,A,3,20,16,31,14,29,06,32,,,,,,2.3,1.0,2.0*3E
$GPRMC,072107.000,A,3030.6559,N,11423.3364,E,19.49,311.46,020708,,,A*5C
$GPGGA,072108.000,3030.6598,N,11423.3313,E,1,07,1.0,44.7,M,-13.6,M,,0000*4D
$GPGSA,A,3,20,16,31,14,29,06,32,,,,,,2.3,1.0,2.0*3E
$GPRMC,072108.000,A,3030.6598,N,11423.3313,E,19.65,310.36,020708,,,A*56
$GPGGA,072109.000,3030.6638,N,11423.3266,E,1,07,1.0,45.6,M,-13.6,M,,0000*46
$GPGSA,A,3,20,16,31,14,29,06,32,,,,,,2.3,1.0,2.0*3E
$GPRMC,072109.000,A,3030.6638,N,11423.3266,E,20.03,312.51,020708,,,A*54
$GPGGA,072110.000,3030.6684,N,11423.3215,E,1,07,1.0,45.3,M,-13.6,M,,0000*48
$GPGSA,A,3,20,16,31,14,29,06,32,,,,,,2.3,1.0,2.0*3E
$GPRMC,072110.000,A,3030.6684,N,11423.3215,E,21.34,313.78,020708,,,A*50
$GPGGA,072111.000,3030.6732,N,11423.3164,E,1,06,1.4,44.6,M,-13.6,M,,0000*41
$GPGSA,A,3,20,16,31,14,06,32,,,,,,,2.9,1.4,2.6*3D
$GPGSV,3,1,10,16,66,240,17,31,55,026,26,32,40,258,27,14,35,132,19*7B
$GPGSV,3,2,10,20,27,285,21,29,23,058,10,06,20,175,14,23,12,318,19*76
$GPGSV,3,3,10,03,10,189,,30,06,045,*7E
$GPRMC,072111.000,A,3030.6732,N,11423.3164,E,21.43,313.86,020708,,,A*59
$GPGGA,072112.000,3030.6773,N,11423.3117,E,1,06,1.5,43.8,M,-13.6,M,,0000*4B
$GPGSA,A,3,20,16,31,06,03,32,,,,,,,2.8,1.5,2.3*3E
$GPRMC,072112.000,A,3030.6773,N,11423.3117,E,21.13,314.71,020708,,,A*51
$GPGGA,072113.000,3030.6816,N,11423.3067,E,1,06,1.8,44.1,M,-13.6,M,,0000*43
$GPGSA,A,3,16,31,14,06,03,32,,,,,,,3.5,1.8,3.0*3A
$GPRMC,072113.000,A,3030.6816,N,11423.3067,E,20.21,315.25,020708,,,A*5A
$GPGGA,072114.000,3030.6862,N,11423.3016,E,1,04,2.7,43.9,M,-13.6,M,,0000*40
$GPGSA,A,3,31,14,03,32,,,,,,,,,6.5,2.7,6.0*37
$GPRMC,072114.000,A,3030.6862,N,11423.3016,E,21.00,315.25,020708,,,A*5A
$GPGGA,072115.000,3030.6905,N,11423.2967,E,1,04,2.7,42.8,M,-13.6,M,,0000*4F
$GPGSA,A,3,31,14,03,32,,,,,,,,,6.6,2.7,6.0*34
$GPRMC,072115.000,A,3030.6905,N,11423.2967,E,19.96,313.81,020708,,,A*59
$GPGGA,072116.000,3030.6942,N,11423.2925,E,1,04,2.7,42.2,M,-13.6,M,,0000*43
$GPGSA,A,3,31,14,03,32,,,,,,,,,6.6,2.7,6.0*34
$GPGSV,3,1,10,16,66,240,17,31,55,026,26,32,40,258,18,14,35,132,20*7D
$GPGSV,3,2,10,20,27,285,,29,23,058,,06,20,175,15,23,12,318,19*75
$GPGSV,3,3,10,03,10,189,20,30,06,045,*7C
$GPRMC,072116.000,A,3030.6942,N,11423.2925,E,18.41,314.11,020708,,,A*5A
$GPGGA,072117.000,3030.6979,N,11423.2884,E,1,03,1.7,42.0,M,-13.6,M,,0000*46
$GPGSA,A,2,31,14,32,,,,,,,,,,2.0,1.7,1.0*30
$GPRMC,072117.000,A,3030.6979,N,11423.2884,E,17.84,317.14,020708,,,A*59
$GPGGA,072118.000,3030.7018,N,11423.2843,E,1,03,1.7,41.7,M,-13.6,M,,0000*49
$GPGSA,A,2,31,14,32,,,,,,,,,,2.0,1.7,1.0*30
$GPRMC,072118.000,A,3030.7018,N,11423.2843,E,17.44,318.98,020708,,,A*55
$GPGGA,072119.000,3030.7062,N,11423.2802,E,1,05,1.8,38.3,M,-13.6,M,,0000*43
$GPGSA,A,3,16,31,14,06,32,,,,,,,,4.3,1.8,3.8*30
$GPRMC,072119.000,A,3030.7062,N,11423.2802,E,18.05,321.67,020708,,,A*5C
$GPGGA,072120.000,3030.7094,N,11423.2761,E,1,05,1.3,39.5,M,-13.6,M,,0000*46
$GPGSA,A,3,30,31,14,06,32,,,,,,,,2.4,1.3,2.0*37
$GPRMC,072120.000,A,3030.7094,N,11423.2761,E,18.44,319.20,020708,,,A*58
$GPGGA,072121.000,3030.7134,N,11423.2725,E,1,04,1.9,37.8,M,-13.6,M,,0000*44
$GPGSA,A,3,16,31,14,32,,,,,,,,,4.9,1.9,4.5*37
$GPGSV,3,1,10,16,66,240,17,31,55,026,23,32,40,258,20,14,35,132,20*73
$GPGSV,3,2,10,20,27,285,,29,23,058,,06,20,175,15,23,12,318,18*74
$GPGSV,3,3,10,03,10,189,10,30,06,045,16*78
$GPRMC,072121.000,A,3030.7134,N,11423.2725,E,17.42,318.66,020708,,,A*58
$GPGGA,072122.000,3030.7172,N,11423.2688,E,1,04,2.5,36.9,M,-13.6,M,,0000*4C
$GPGSA,A,3,30,16,31,14,,,,,,,,,4.0,2.5,3.1*30
$GPRMC,072122.000,A,3030.7172,N,11423.2688,E,16.67,314.70,020708,,,A*52
$GPGGA,072123.000,3030.7205,N,11423.2649,E,1,03,3.6,37.6,M,-13.6,M,,0000*48
$GPGSA,A,2,30,31,14,,,,,,,,,,3.7,3.6,1.0*37
$GPRMC,072123.000,A,3030.7205,N,11423.2649,E,16.37,314.24,020708,,,A*59
$GPGGA,072124.000,3030.7239,N,11423.2609,E,1,04,2.6,37.4,M,-13.6,M,,0000*40
$GPGSA,A,3,30,31,14,06,,,,,,,,,3.3,2.6,2.1*37
$GPRMC,072124.000,A,3030.7239,N,11423.2609,E,16.68,316.57,020708,,,A*59
$GPGGA,072125.000,3030.7272,N,11423.2576,E,1,06,1.8,37.3,M,-13.6,M,,0000*4D
$GPGSA,A,3,30,16,31,14,29,06,,,,,,,2.7,1.8,2.1*33
$GPRMC,072125.000,A,3030.7272,N,11423.2576,E,17.45,317.62,020708,,,A*55
$GPGGA,072126.000,3030.7309,N,11423.2542,E,1,06,1.8,38.4,M,-13.6,M,,0000*4C
$GPGSA,A,3,30,16,31,14,29,06,,,,,,,2.7,1.8,2.1*33
$GPGSV,3,1,10,16,66,240,16,31,55,026,23,32,40,258,,14,35,132,19*7A
$GPGSV,3,2,10,20,27,285,,29,23,058,20,06,20,175,13,23,12,318,17*7F
$GPGSV,3,3,10,03,10,189,14,30,06,045,13*79
$GPRMC,072126.000,A,3030.7309,N,11423.2542,E,18.01,321.95,020708,,,A*5E
$GPGGA,072127.000,3030.7339,N,11423.2512,E,1,05,2.2,39.1,M,-13.6,M,,0000*45
$GPGSA,A,3,16,31,14,29,06,,,,,,,,4.0,2.2,3.3*3B
$GPRMC,072127.000,A,3030.7339,N,11423.2512,E,17.78,320.90,020708,,,A*5C
$GPGGA,072128.000,3030.7367,N,11423.2471,E,1,05,2.2,42.8,M,-13.6,M,,0000*40
$GPGSA,A,3,16,31,14,29,06,,,,,,,,4.0,2.2,3.3*3B
$GPRMC,072128.000,A,3030.7367,N,11423.2471,E,19.35,315.94,020708,,,A*59
$GPGGA,072129.000,3030.7402,N,11423.2420,E,1,04,3.4,45.9,M,-13.6,M,,0000*41
$GPGSA,A,3,16,31,14,29,,,,,,,,,7.4,3.4,6.6*3D
$GPRMC,072129.000,A,3030.7402,N,11423.2420,E,20.68,314.55,020708,,,A*56
$GPGGA,072130.000,3030.7432,N,11423.2368,E,1,04,3.4,48.8,M,-13.6,M,,0000*4D
$GPGSA,A,3,16,31,14,29,,,,,,,,,7.4,3.4,6.6*3D
$GPRMC,072130.000,A,3030.7432,N,11423.2368,E,20.11,316.23,020708,,,A*5B
$GPGGA,072131.000,3030.7469,N,11423.2325,E,1,04,3.4,48.5,M,-13.6,M,,0000*46
$GPGSA,A,3,16,31,14,29,,,,,,,,,7.4,3.4,6.6*3D
$GPGSV,3,1,10,16,66,240,16,31,55,026,23,32,40,258,17,14,35,132,19*7C
$GPGSV,3,2,10,20,27,285,15,29,23,058,21,06,20,175,16,23,12,318,17*7F
$GPGSV,3,3,10,03,10,189,13,30,06,045,*7C
$GPRMC,072131.000,A,3030.7469,N,11423.2325,E,20.95,313.93,020708,,,A*5F
$GPGGA,072132.000,3030.7508,N,11423.2283,E,1,05,2.3,51.9,M,-13.6,M,,0000*4D
$GPGSA,A,3,16,31,14,29,30,,,,,,,,3.7,2.3,3.0*3C
$GPRMC,072132.000,A,3030.7508,N,11423.2283,E,20.93,315.13,020708,,,A*5F
$GPGGA,072133.000,3030.7547,N,11423.2234,E,1,05,2.3,56.6,M,-13.6,M,,0000*43
$GPGSA,A,3,16,31,14,29,30,,,,,,,,3.7,2.3,3.0*3C
$GPRMC,072133.000,A,3030.7547,N,11423.2234,E,22.11,312.87,020708,,,A*5B
$GPGGA,072134.000,3030.7600,N,11423.2183,E,1,05,1.3,56.3,M,-13.6,M,,0000*4D
$GPGSA,A,3,16,31,14,29,20,,,,,,,,2.6,1.3,2.3*3C
$GPRMC,072134.000,A,3030.7600,N,11423.2183,E,22.35,317.42,020708,,,A*59
$GPGGA,072135.000,3030.7655,N,11423.2142,E,1,06,1.3,60.3,M,-13.6,M,,0000*47
$GPGSA,A,3,16,31,14,29,32,20,,,,,,,2.6,1.3,2.3*3D
$GPRMC,072135.000,A,3030.7655,N,11423.2142,E,22.58,319.31,020708,,,A*54
$GPGGA,072136.000,3030.7694,N,11423.2092,E,1,06,1.3,61.8,M,-13.6,M,,0000*4F
$GPGSA,A,3,16,31,14,29,32,20,,,,,,,2.6,1.3,2.3*3D
$GPGSV,3,1,10,16,66,240,17,31,55,026,17,32,40,258,23,14,35,132,20*77
$GPGSV,3,2,10,20,27,285,17,29,23,058,20,06,20,175,14,23,12,318,17*7E
$GPGSV,3,3,10,03,10,189,13,30,06,045,*7C
$GPRMC,072136.000,A,3030.7694,N,11423.2092,E,21.46,316.56,020708,,,A*54
$GPGGA,072137.000,3030.7736,N,11423.2043,E,1,05,1.5,61.9,M,-13.6,M,,0000*4F
$GPGSA,A,3,16,31,14,32,20,,,,,,,,3.2,1.5,2.9*3F
$GPRMC,072137.000,A,3030.7736,N,11423.2043,E,21.27,317.13,020708,,,A*57
$GPGGA,072138.000,3030.7775,N,11423.1986,E,1,05,1.5,64.6,M,-13.6,M,,0000*4E
$GPGSA,A,3,16,31,14,32,20,,,,,,,,3.2,1.5,2.9*3F
$GPRMC,072138.000,A,3030.7775,N,11423.1986,E,21.46,315.57,020708,,,A*59
$GPGGA,072139.000,3030.7815,N,11423.1937,E,1,04,2.0,67.7,M,-13.6,M,,0000*49
$GPGSA,A,3,31,14,32,20,,,,,,,,,5.9,2.0,5.6*3B
$GPRMC,072139.000,A,3030.7815,N,11423.1937,E,21.44,317.65,020708,,,A*5A
$GPGGA,072140.000,3030.7863,N,11423.1884,E,1,04,1.9,69.8,M,-13.6,M,,0000*44
$GPGSA,A,3,16,31,14,32,,,,,,,,,4.9,1.9,4.5*37
$GPRMC,072140.000,A,3030.7863,N,11423.1884,E,21.17,315.30,020708,,,A*58
$GPGGA,072141.000,3030.7911,N,11423.1828,E,1,07,1.0,67.8,M,-13.6,M,,0000*43
$GPGSA,A,3,06,16,31,14,29,32,20,,,,,,2.3,1.0,2.0*3E
$GPGSV,3,1,10,16,66,240,18,31,55,026,21,32,40,258,23,14,35,132,20*7D
$GPGSV,3,2,10,20,27,285,19,29,23,058,21,06,20,175,13,23,12,318,17*76
$GPGSV,3,3,10,03,10,189,,30,06,045,*7E
$GPRMC,072141.000,A,3030.7911,N,11423.1828,E,21.67,317.29,020708,,,A*56
$GPGGA,072142.000,3030.7951,N,11423.1775,E,1,05,1.5,67.4,M,-13.6,M,,0000*48
$GPGSA,A,3,16,31,14,32,20,,,,,,,,3.2,1.5,2.9*3F
$GPRMC,072142.000,A,3030.7951,N,11423.1775,E,20.77,318.10,020708,,,A*53
$GPGGA,072143.000,3030.7998,N,11423.1719,E,1,04,2.0,67.1,M,-13.6,M,,0000*44
$GPGSA,A,3,31,14,32,20,,,,,,,,,5.9,2.0,5.6*3B
$GPRMC,072143.000,A,3030.7998,N,11423.1719,E,21.42,319.15,020708,,,A*5E
$GPGGA,072144.000,3030.8322,N,11423.1607,E,1,06,1.4,111.3,M,-13.6,M,,0000*7E
$GPGSA,A,3,06,16,31,14,32,20,,,,,,,2.9,1.4,2.6*3D
$GPRMC,072144.000,A,3030.8322,N,11423.1607,E,19.09,311.00,020708,,,A*5B
$GPGGA,072145.000,3030.8228,N,11423.1595,E,1,05,1.5,-22.6,M,-13.6,M,,0000*67
$GPGSA,A,3,16,31,14,32,20,,,,,,,,3.2,1.5,2.9*3F
$GPRMC,072145.000,A,3030.8228,N,11423.1595,E,20.18,312.96,020708,,,A*5F
$GPGGA,072146.000,3030.8273,N,11423.1541,E,1,05,1.5,-18.8,M,-13.6,M,,0000*64
$GPGSA,A,3,16,31,14,32,20,,,,,,,,3.2,1.5,2.9*3F
$GPGSV,3,1,10,16,66,240,16,31,55,026,20,32,40,258,23,14,35,132,20*72
$GPGSV,3,2,10,20,27,285,19,29,23,058,11,06,20,175,,23,12,318,18*78
$GPGSV,3,3,10,03,10,189,,30,06,045,*7E
$GPRMC,072146.000,A,3030.8273,N,11423.1541,E,19.49,311.95,020708,,,A*55
$GPGGA,072147.000,3030.8280,N,11423.1491,E,1,04,1.9,-3.4,M,-13.6,M,,0000*5E
$GPGSA,A,3,16,31,14,32,,,,,,,,,4.9,1.9,4.5*37
$GPRMC,072147.000,A,3030.8280,N,11423.1491,E,18.77,314.27,020708,,,A*54
$GPGGA,072148.000,3030.8281,N,11423.1446,E,1,05,1.5,1.0,M,-13.6,M,,0000*7C
$GPGSA,A,3,16,31,14,32,20,,,,,,,,3.2,1.5,2.9*3F
$GPRMC,072148.000,A,3030.8281,N,11423.1446,E,17.00,316.63,020708,,,A*5D
$GPGGA,072149.000,3030.8304,N,11423.1401,E,1,06,1.3,2.3,M,-13.6,M,,0000*77
$GPGSA,A,3,16,31,14,29,32,20,,,,,,,2.6,1.3,2.3*3D
$GPRMC,072149.000,A,3030.8304,N,11423.1401,E,17.62,313.36,020708,,,A*52
$GPGGA,072150.000,3030.8327,N,11423.1355,E,1,06,1.3,10.4,M,-13.6,M,,0000*4C
$GPGSA,A,3,16,31,14,29,32,20,,,,,,,2.6,1.3,2.3*3D
$GPRMC,072150.000,A,3030.8327,N,11423.1355,E,16.77,313.64,020708,,,A*5F
$GPGGA,072151.000,3030.8362,N,11423.1327,E,1,06,1.3,11.1,M,-13.6,M,,0000*4D
$GPGSA,A,3,16,31,14,29,32,20,,,,,,,2.6,1.3,2.3*3D
$GPGSV,3,1,10,16,67,243,16,31,55,028,20,32,40,256,22,14,34,133,19*7B
$GPGSV,3,2,10,20,27,283,18,29,22,056,23,06,21,175,,23,13,318,17*7E
$GPGSV,3,3,10,03,11,189,,30,05,046,*7F
$GPRMC,072151.000,A,3030.8362,N,11423.1327,E,15.57,316.30,020708,,,A*5F
$GPGGA,072152.000,3030.8396,N,11423.1301,E,1,06,1.3,4.9,M,-13.6,M,,0000*7D
$GPGSA,A,3,16,31,14,29,32,20,,,,,,,2.6,1.3,2.3*3D
$GPRMC,072152.000,A,3030.8396,N,11423.1301,E,14.14,313.94,020708,,,A*5E
$GPGGA,072153.000,3030.8428,N,11423.1276,E,1,06,1.3,5.0,M,-13.6,M,,0000*77
$GPGSA,A,3,16,31,14,29,32,20,,,,,,,2.6,1.3,2.3*3D
$GPRMC,072153.000,A,3030.8428,N,11423.1276,E,12.65,313.83,020708,,,A*5A
$GPGGA,072154.000,3030.8447,N,11423.1252,E,1,06,1.3,4.4,M,-13.6,M,,0000*7A
$GPGSA,A,3,16,31,14,29,32,20,,,,,,,2.6,1.3,2.3*3D
$GPRMC,072154.000,A,3030.8447,N,11423.1252,E,11.62,314.74,020708,,,A*59
$GPGGA,072155.000,3030.8462,N,11423.1231,E,1,05,2.7,11.1,M,-13.6,M,,0000*4C
$GPGSA,A,3,16,31,29,32,20,,,,,,,,3.7,2.7,2.5*39
$GPRMC,072155.000,A,3030.8462,N,11423.1231,E,10.61,312.69,020708,,,A*52
$GPGGA,072156.000,3030.8479,N,11423.1209,E,1,04,3.3,10.6,M,-13.6,M,,0000*4C
$GPGSA,A,3,31,29,32,20,,,,,,,,,4.5,3.3,3.0*3A
$GPGSV,3,1,10,16,67,243,16,31,55,028,21,32,40,256,19,14,34,133,19*72
$GPGSV,3,2,10,20,27,283,18,29,22,056,22,06,21,175,,23,13,318,17*7F
$GPGSV,3,3,10,03,11,189,,30,05,046,*7F
$GPRMC,072156.000,A,3030.8479,N,11423.1209,E,9.90,314.26,020708,,,A*6B
$GPGGA,072157.000,3030.8490,N,11423.1199,E,1,06,1.3,10.7,M,-13.6,M,,0000*41
$GPGSA,A,3,16,31,14,29,32,20,,,,,,,2.6,1.3,2.3*3D
$GPRMC,072157.000,A,3030.8490,N,11423.1199,E,7.06,320.20,020708,,,A*67
$GPGGA,072158.000,3030.8492,N,11423.1197,E,1,06,1.3,9.2,M,-13.6,M,,0000*7F
$GPGSA,A,3,16,31,14,29,32,20,,,,,,,2.6,1.3,2.3*3D
$GPRMC,072158.000,A,3030.8492,N,11423.1197,E,3.83,326.13,020708,,,A*6B
$GPGGA,072159.000,3030.8496,N,11423.1197,E,1,06,1.3,9.0,M,-13.6,M,,0000*78
$GPGSA,A,3,16,31,14,29,32,20,,,,,,,2.6,1.3,2.3*3D
$GPRMC,072159.000,A,3030.8496,N,11423.1197,E,3.13,315.50,020708,,,A*60
$GPGGA,072200.000,3030.8506,N,11423.1190,E,1,06,1.3,8.8,M,-13.6,M,,0000*71
$GPGSA,A,3,16,31,14,29,32,20,,,,,,,2.6,1.3,2.3*3D
$GPRMC,072200.000,A,3030.8506,N,11423.1190,E,3.45,324.41,020708,,,A*61
$GPGGA,072201.000,3030.8513,N,11423.1178,E,1,06,1.3,9.3,M,-13.6,M,,0000*78
$GPGSA,A,3,16,31,14,29,32,20,,,,,,,2.6,1.3,2.3*3D
$GPGSV,3,1,10,16,67,243,18,31,55,028,23,32,40,256,23,14,34,133,20*7D
$GPGSV,3,2,10,20,27,283,19,29,22,056,22,06,21,175,,23,13,318,17*7E
$GPGSV,3,3,10,03,11,189,13,30,05,046,*7D
$GPRMC,072201.000,A,3030.8513,N,11423.1178,E,3.56,319.13,020708,,,A*69
$GPGGA,072202.000,3030.8523,N,11423.1164,E,1,06,1.3,11.3,M,-13.6,M,,0000*4C
$GPGSA,A,3,16,31,14,29,32,20,,,,,,,2.6,1.3,2.3*3D
$GPRMC,072202.000,A,3030.8523,N,11423.1164,E,4.80,312.75,020708,,,A*63
$GPGGA,072203.000,3030.8532,N,11423.1151,E,1,06,1.3,14.7,M,-13.6,M,,0000*4A
$GPGSA,A,3,16,31,14,29,32,20,,,,,,,2.6,1.3,2.3*3D
$GPRMC,072203.000,A,3030.8532,N,11423.1151,E,5.33,317.31,020708,,,A*68
$GPGGA,072204.000,3030.8541,N,11423.1142,E,1,06,1.3,16.2,M,-13.6,M,,0000*4C
$GPGSA,A,3,16,31,14,29,32,20,,,,,,,2.6,1.3,2.3*3D
$GPRMC,072204.000,A,3030.8541,N,11423.1142,E,4.25,317.05,020708,,,A*68
$GPGGA,072205.000,3030.8555,N,11423.1134,E,1,06,1.3,17.7,M,-13.6,M,,0000*4D
$GPGSA,A,3,16,31,14,29,32,20,,,,,,,2.6,1.3,2.3*3D
$GPRMC,072205.000,A,3030.8555,N,11423.1134,E,3.50,323.60,020708,,,A*6C
$GPGGA,072206.000,3030.8567,N,11423.1132,E,1,07,1.0,17.7,M,-13.6,M,,0000*4B
$GPGSA,A,3,16,31,14,06,29,32,20,,,,,,2.3,1.0,2.0*3E
$GPGSV,3,1,10,16,67,243,18,31,55,028,24,32,40,256,22,14,34,133,20*7B
$GPGSV,3,2,10,20,27,283,20,29,22,056,22,06,21,175,17,23,13,318,17*72
$GPGSV,3,3,10,03,11,189,14,30,05,046,*7A
$GPRMC,072206.000,A,3030.8567,N,11423.1132,E,2.20,328.03,020708,,,A*60
$GPGGA,072207.000,3030.8562,N,11423.1130,E,1,07,1.0,15.1,M,-13.6,M,,0000*49
$GPGSA,A,3,16,31,14,06,29,32,20,,,,,,2.3,1.0,2.0*3E
$GPRMC,072207.000,A,3030.8562,N,11423.1130,E,0.67,336.67,020708,,,A*6A
$GPGGA,072208.000,3030.8559,N,11423.1134,E,1,07,1.0,16.1,M,-13.6,M,,0000*49
$GPGSA,A,3,16,31,14,06,29,32,20,,,,,,2.3,1.0,2.0*3E
$GPRMC,072208.000,A,3030.8559,N,11423.1134,E,0.00,,020708,,,A*71
$GPGGA,072209.000,3030.8559,N,11423.1134,E,1,07,1.0,16.1,M,-13.6,M,,0000*48
$GPGSA,A,3,16,31,14,06,29,32,20,,,,,,2.3,1.0,2.0*3E
$GPRMC,072209.000,A,3030.8559,N,11423.1134,E,0.00,,020708,,,A*70
$GPGGA,072210.000,3030.8559,N,11423.1134,E,1,05,1.1,16.1,M,-13.6,M,,0000*43
$GPGSA,A,3,31,14,06,29,20,,,,,,,,3.2,1.1,3.0*38
$GPRMC,072210.000,A,3030.8559,N,11423.1134,E,0.00,,020708,,,A*78
$GPGGA,072211.000,3030.8559,N,11423.1134,E,1,06,1.0,16.1,M,-13.6,M,,0000*40
$GPGSA,A,3,31,14,06,29,32,20,,,,,,,3.0,1.0,2.8*33
$GPGSV,3,1,10,16,67,243,,31,55,028,27,32,40,256,20,14,34,133,20*73
$GPGSV,3,2,10,20,27,283,20,29,22,056,28,06,21,175,20,23,13,318,*7A
$GPGSV,3,3,10,03,11,189,14,30,05,046,*7A
$GPRMC,072211.000,A,3030.8559,N,11423.1134,E,0.00,,020708,,,A*79
$GPGGA,072212.000,3030.8559,N,11423.1134,E,1,06,1.0,16.1,M,-13.6,M,,0000*43
$GPGSA,A,3,31,14,06,29,32,20,,,,,,,3.0,1.0,2.8*33
$GPRMC,072212.000,A,3030.8559,N,11423.1134,E,0.00,,020708,,,A*7A
$GPGGA,072213.000,3030.8559,N,11423.1134,E,1,06,1.0,16.1,M,-13.6,M,,0000*42
$GPGSA,A,3,31,14,06,29,32,20,,,,,,,3.0,1.0,2.8*33
$GPRMC,072213.000,A,3030.8559,N,11423.1134,E,0.00,,020708,,,A*7B
$GPGGA,072214.000,3030.8559,N,11423.1134,E,1,06,1.0,16.1,M,-13.6,M,,0000*45
$GPGSA,A,3,31,14,06,29,32,20,,,,,,,3.0,1.0,2.8*33
$GPRMC,072214.000,A,3030.8559,N,11423.1134,E,0.00,,020708,,,A*7C
$GPGGA,072215.000,3030.8559,N,11423.1134,E,1,06,1.0,16.1,M,-13.6,M,,0000*44
$GPGSA,A,3,31,14,06,29,32,20,,,,,,,3.0,1.0,2.8*33
$GPRMC,072215.000,A,3030.8559,N,11423.1134,E,0.00,,020708,,,A*7D
$GPGGA,072216.000,3030.8559,N,11423.1134,E,1,06,1.0,16.1,M,-13.6,M,,0000*47
$GPGSA,A,3,31,14,06,29,32,20,,,,,,,3.0,1.0,2.8*33
$GPGSV,3,1,10,16,67,243,,31,55,028,25,32,40,256,19,14,34,133,21*7A
$GPGSV,3,2,10,20,27,283,20,29,22,056,28,06,21,175,20,23,13,318,*7A
$GPGSV,3,3,10,03,11,189,14,30,05,046,*7A
$GPRMC,072216.000,A,3030.8559,N,11423.1134,E,0.00,,020708,,,A*7E
$GPGGA,072217.000,3030.8559,N,11423.1134,E,1,07,1.0,16.1,M,-13.6,M,,0000*47
$GPGSA,A,3,16,31,14,06,29,32,20,,,,,,2.3,1.0,2.0*3E
$GPRMC,072217.000,A,3030.8559,N,11423.1134,E,0.00,,020708,,,A*7F
$GPGGA,072218.000,3030.8559,N,11423.1134,E,1,06,1.0,16.1,M,-13.6,M,,0000*49
$GPGSA,A,3,31,14,06,29,32,20,,,,,,,3.0,1.0,2.8*33
$GPRMC,072218.000,A,3030.8559,N,11423.1134,E,0.00,,020708,,,A*70
$GPGGA,072219.000,3030.8559,N,11423.1134,E,1,07,1.0,16.1,M,-13.6,M,,0000*49
$GPGSA,A,3,16,31,14,06,29,32,20,,,,,,2.3,1.0,2.0*3E
$GPRMC,072219.000,A,3030.8559,N,11423.1134,E,0.00,,020708,,,A*71
$GPGGA,072220.000,3030.8559,N,11423.1134,E,1,07,1.0,16.1,M,-13.6,M,,0000*43
$GPGSA,A,3,16,31,14,06,29,32,20,,,,,,2.3,1.0,2.0*3E
$GPRMC,072220.000,A,3030.8559,N,11423.1134,E,0.00,,020708,,,A*7B
$GPGGA,072221.000,3030.8559,N,11423.1134,E,1,07,1.0,16.1,M,-13.6,M,,0000*42
$GPGSA,A,3,16,31,14,06,29,32,20,,,,,,2.3,1.0,2.0*3E
$GPGSV,3,1,10,16,67,243,15,31,55,028,25,32,40,256,19,14,34,133,20*7F
$GPGSV,3,2,10,20,27,283,20,29,22,056,29,06,21,175,21,23,13,318,20*78
$GPGSV,3,3,10,03,11,189,14,30,05,046,*7A
$GPRMC,072221.000,A,3030.8559,N,11423.1134,E,0.00,,020708,,,A*7A
$GPGGA,072222.000,3030.8559,N,11423.1134,E,1,07,1.0,16.1,M,-13.6,M,,0000*41
$GPGSA,A,3,16,31,14,06,29,32,20,,,,,,2.3,1.0,2.0*3E
$GPRMC,072222.000,A,3030.8559,N,11423.1134,E,0.00,,020708,,,A*79
$GPGGA,072223.000,3030.8559,N,11423.1134,E,1,07,1.0,16.1,M,-13.6,M,,0000*40
$GPGSA,A,3,16,31,14,06,29,32,20,,,,,,2.3,1.0,2.0*3E
$GPRMC,072223.000,A,3030.8559,N,11423.1134,E,0.00,,020708,,,A*78
$GPGGA,072224.000,3030.8559,N,11423.1134,E,1,07,1.0,16.1,M,-13.6,M,,0000*47
$GPGSA,A,3,16,31,14,06,29,32,20,,,,,,2.3,1.0,2.0*3E
$GPRMC,072224.000,A,3030.8559,N,11423.1134,E,0.00,,020708,,,A*7F
$GPGGA,072225.000,3030.8575,N,11423.1154,E,1,07,1.0,23.9,M,-13.6,M,,0000*40
$GPGSA,A,3,16,31,14,06,29,32,20,,,,,,2.3,1.0,2.0*3E
$GPRMC,072225.000,A,3030.8575,N,11423.1154,E,2.83,309.43,020708,,,A*6C
$GPGGA,072226.000,3030.8576,N,11423.1145,E,1,07,1.0,24.4,M,-13.6,M,,0000*4A
$GPGSA,A,3,16,31,14,06,29,32,20,,,,,,2.3,1.0,2.0*3E
$GPGSV,3,1,10,16,67,243,15,31,55,028,26,32,40,256,20,14,34,133,19*7C
$GPGSV,3,2,10,20,27,283,21,29,22,056,23,06,21,175,21,23,13,318,20*73
$GPGSV,3,3,10,03,11,189,16,30,05,046,*78
$GPRMC,072226.000,A,3030.8576,N,11423.1145,E,3.13,308.08,020708,,,A*6A
$GPGGA,072227.000,3030.8582,N,11423.1138,E,1,07,1.0,25.6,M,-13.6,M,,0000*49
$GPGSA,A,3,16,31,14,06,29,32,20,,,,,,2.3,1.0,2.0*3E
$GPRMC,072227.000,A,3030.8582,N,11423.1138,E,2.99,311.96,020708,,,A*66
$GPGGA,072228.000,3030.8595,N,11423.1131,E,1,07,1.0,24.7,M,-13.6,M,,0000*49
$GPGSA,A,3,16,31,14,06,29,32,20,,,,,,2.3,1.0,2.0*3E
$GPRMC,072228.000,A,3030.8595,N,11423.1131,E,3.14,313.65,020708,,,A*6C
$GPGGA,072229.000,3030.8603,N,11423.1122,E,1,07,1.0,25.0,M,-13.6,M,,0000*40
$GPGSA,A,3,16,31,14,06,29,32,20,,,,,,2.3,1.0,2.0*3E
$GPRMC,072229.000,A,3030.8603,N,11423.1122,E,3.10,315.18,020708,,,A*6B
$GPGGA,072230.000,3030.8613,N,11423.1111,E,1,07,1.0,26.6,M,-13.6,M,,0000*4C
$GPGSA,A,3,16,31,14,06,29,32,20,,,,,,2.3,1.0,2.0*3E
$GPRMC,072230.000,A,3030.8613,N,11423.1111,E,4.42,313.69,020708,,,A*62
$GPGGA,072231.000,3030.8621,N,11423.1099,E,1,07,1.0,26.5,M,-13.6,M,,0000*4E
$GPGSA,A,3,16,31,14,06,29,32,20,,,,,,2.3,1.0,2.0*3E
$GPGSV,3,1,10,16,67,243,20,31,55,028,23,32,40,256,20,14,34,133,26*73
$GPGSV,3,2,10,20,27,283,20,29,22,056,30,06,21,175,19,23,13,318,20*7B
$GPGSV,3,3,10,03,11,189,15,30,05,046,*7B
$GPRMC,072231.000,A,3030.8621,N,11423.1099,E,3.56,311.69,020708,,,A*63
$GPGGA,072232.000,3030.8627,N,11423.1088,E,1,07,1.0,25.3,M,-13.6,M,,0000*4E
$GPGSA,A,3,16,31,14,06,29,32,20,,,,,,2.3,1.0,2.0*3E
$GPRMC,072232.000,A,3030.8627,N,11423.1088,E,2.29,303.95,020708,,,A*6F
$GPGGA,072233.000,3030.8629,N,11423.1084,E,1,07,1.0,24.7,M,-13.6,M,,0000*48
$GPGSA,A,3,16,31,14,06,29,32,20,,,,,,2.3,1.0,2.0*3E
$GPRMC,072233.000,A,3030.8629,N,11423.1084,E,0.38,262.71,020708,,,A*62
$GPGGA,072234.000,3030.8630,N,11423.1079,E,1,07,1.0,24.7,M,-13.6,M,,0000*45
$GPGSA,A,3,16,31,14,06,29,32,20,,,,,,2.3,1.0,2.0*3E
$GPRMC,072234.000,A,3030.8630,N,11423.1079,E,0.00,,020708,,,A*7A
$GPGGA,072235.000,3030.8630,N,11423.1079,E,1,07,1.0,24.7,M,-13.6,M,,0000*44
$GPGSA,A,3,16,31,14,06,29,32,20,,,,,,2.3,1.0,2.0*3E
$GPRMC,072235.000,A,3030.8630,N,11423.1079,E,0.00,,020708,,,A*7B
$GPGGA,072236.000,3030.8630,N,11423.1079,E,1,07,1.0,24.7,M,-13.6,M,,0000*47
$GPGSA,A,3,16,31,14,06,29,32,20,,,,,,2.3,1.0,2.0*3E
$GPGSV,3,1,10,16,67,243,19,31,55,028,22,32,40,256,27,14,34,133,25*7C
$GPGSV,3,2,10,20,27,283,19,29,22,056,20,06,21,175,21,23,13,318,20*7B
$GPGSV,3,3,10,03,11,189,15,30,05,046,*7B
$GPRMC,072236.000,A,3030.8630,N,11423.1079,E,0.00,,020708,,,A*78
$GPGGA,072237.000,3030.8630,N,11423.1079,E,1,07,1.0,24.7,M,-13.6,M,,0000*46
$GPGSA,A,3,16,31,14,06,29,32,20,,,,,,2.3,1.0,2.0*3E
$GPRMC,072237.000,A,3030.8630,N,11423.1079,E,0.00,,020708,,,A*79
$GPGGA,072238.000,3030.8630,N,11423.1079,E,1,07,1.0,24.7,M,-13.6,M,,0000*49
$GPGSA,A,3,16,31,14,06,29,32,20,,,,,,2.3,1.0,2.0*3E
$GPRMC,072238.000,A,3030.8630,N,11423.1079,E,0.00,,020708,,,A*76
$GPGGA,072239.000,3030.8630,N,11423.1079,E,1,07,1.0,24.7,M,-13.6,M,,0000*48
$GPGSA,A,3,16,31,14,06,29,32,20,,,,,,2.3,1.0,2.0*3E
$GPRMC,072239.000,A,3030.8630,N,11423.1079,E,0.00,,020708,,,A*77
$GPGGA,072240.000,3030.8630,N,11423.1079,E,1,07,1.0,24.7,M,-13.6,M,,0000*46
$GPGSA,A,3,16,31,14,06,29,32,20,,,,,,2.3,1.0,2.0*3E
$GPRMC,072240.000,A,3030.8630,N,11423.1079,E,0.00,,020708,,,A*79
$GPGGA,072241.000,3030.8630,N,11423.1079,E,1,07,1.0,24.7,M,-13.6,M,,0000*47
$GPGSA,A,3,16,31,14,06,29,32,20,,,,,,2.3,1.0,2.0*3E
$GPGSV,3,1,10,16,67,243,25,31,55,028,19,32,40,256,26,14,34,133,24*7B
$GPGSV,3,2,10,20,27,283,22,29,22,056,25,06,21,175,22,23,13,318,19*7F
$GPGSV,3,3,10,03,11,189,15,30,05,046,*7B
$GPRMC,072241.000,A,3030.8630,N,11423.1079,E,0.00,,020708,,,A*78
$GPGGA,072242.000,3030.8630,N,11423.1079,E,1,07,1.0,24.7,M,-13.6,M,,0000*44
$GPGSA,A,3,16,31,14,06,29,32,20,,,,,,2.3,1.0,2.0*3E
$GPRMC,072242.000,A,3030.8630,N,11423.1079,E,0.00,,020708,,,A*7B
$GPGGA,072243.000,3030.8630,N,11423.1079,E,1,07,1.0,24.7,M,-13.6,M,,0000*45
$GPGSA,A,3,16,31,14,06,29,32,20,,,,,,2.3,1.0,2.0*3E
$GPRMC,072243.000,A,3030.8630,N,11423.1079,E,0.00,,020708,,,A*7A
$GPGGA,072244.000,3030.8630,N,11423.1079,E,1,07,1.0,24.7,M,-13.6,M,,0000*42
$GPGSA,A,3,16,31,14,06,29,32,20,,,,,,2.3,1.0,2.0*3E
$GPRMC,072244.000,A,3030.8630,N,11423.1079,E,0.00,,020708,,,A*7D
$GPGGA,072245.000,3030.8630,N,11423.1079,E,1,07,1.0,24.7,M,-13.6,M,,0000*43
$GPGSA,A,3,16,31,14,06,29,32,20,,,,,,2.3,1.0,2.0*3E
$GPRMC,072245.000,A,3030.8630,N,11423.1079,E,0.00,,020708,,,A*7C
$GPGGA,072246.000,3030.8630,N,11423.1079,E,1,07,1.0,24.7,M,-13.6,M,,0000*40
$GPGSA,A,3,16,31,14,06,29,32,20,,,,,,2.3,1.0,2.0*3E
$GPGSV,3,1,10,16,67,243,25,31,55,028,19,32,40,256,19,14,34,133,20*73
$GPGSV,3,2,10,20,27,283,23,29,22,056,25,06,21,175,22,23,13,318,19*7E
$GPGSV,3,3,10,03,11,189,15,30,05,046,*7B
$GPRMC,072246.000,A,3030.8630,N,11423.1079,E,0.00,,020708,,,A*7F
$GPGGA,072247.000,3030.8630,N,11423.1079,E,1,07,1.0,24.7,M,-13.6,M,,0000*41
$GPGSA,A,3,16,31,14,06,29,32,20,,,,,,2.3,1.0,2.0*3E
$GPRMC,072247.000,A,3030.8630,N,11423.1079,E,0.00,,020708,,,A*7E
$GPGGA,072248.000,3030.8630,N,11423.1079,E,1,07,1.0,24.7,M,-13.6,M,,0000*4E
$GPGSA,A,3,16,31,14,06,29,32,20,,,,,,2.3,1.0,2.0*3E
$GPRMC,072248.000,A,3030.8630,N,11423.1079,E,0.00,,020708,,,A*71
$GPGGA,072249.000,3030.8630,N,11423.1079,E,1,07,1.0,24.7,M,-13.6,M,,0000*4F
$GPGSA,A,3,16,31,14,06,29,32,20,,,,,,2.3,1.0,2.0*3E
$GPRMC,072249.000,A,3030.8630,N,11423.1079,E,0.00,,020708,,,A*70
$GPGGA,072250.000,3030.8627,N,11423.1088,E,1,07,1.0,32.5,M,-13.6,M,,0000*4A
$GPGSA,A,3,16,31,14,06,29,32,20,,,,,,2.3,1.0,2.0*3E
$GPRMC,072250.000,A,3030.8627,N,11423.1088,E,3.13,309.00,020708,,,A*65
$GPGGA,072251.000,3030.8633,N,11423.1074,E,1,07,1.0,31.6,M,-13.6,M,,0000*4D
$GPGSA,A,3,16,31,14,06,29,32,20,,,,,,2.3,1.0,2.0*3E
$GPGSV,3,1,10,16,67,243,22,31,55,028,25,32,40,256,22,14,34,133,20*73
$GPGSV,3,2,10,20,27,283,20,29,22,056,24,06,21,175,22,23,13,318,15*70
$GPGSV,3,3,10,03,11,189,15,30,05,046,*7B
$GPRMC,072251.000,A,3030.8633,N,11423.1074,E,3.89,299.92,020708,,,A*62
$GPGGA,072252.000,3030.8641,N,11423.1060,E,1,07,1.0,32.4,M,-13.6,M,,0000*4F
$GPGSA,A,3,16,31,14,06,29,32,20,,,,,,2.3,1.0,2.0*3E
$GPRMC,072252.000,A,3030.8641,N,11423.1060,E,4.73,313.98,020708,,,A*6A
$GPGGA,072253.000,3030.8654,N,11423.1048,E,1,07,1.0,33.1,M,-13.6,M,,0000*44
$GPGSA,A,3,16,31,14,06,29,32,20,,,,,,2.3,1.0,2.0*3E
$GPRMC,072253.000,A,3030.8654,N,11423.1048,E,5.32,318.50,020708,,,A*6E
$GPGGA,072254.000,3030.8669,N,11423.1031,E,1,07,1.0,33.2,M,-13.6,M,,0000*40
$GPGSA,A,3,16,31,14,06,29,32,20,,,,,,2.3,1.0,2.0*3E
$GPRMC,072254.000,A,3030.8669,N,11423.1031,E,6.32,316.68,020708,,,A*6F
$GPGGA,072255.000,3030.8688,N,11423.1010,E,1,07,1.0,33.3,M,-13.6,M,,0000*4C
$GPGSA,A,3,16,31,14,06,29,32,20,,,,,,2.3,1.0,2.0*3E
$GPRMC,072255.000,A,3030.8688,N,11423.1010,E,6.43,310.41,020708,,,A*69
$GPGGA,072256.000,3030.8701,N,11423.0990,E,1,07,1.0,32.7,M,-13.6,M,,0000*4A
$GPGSA,A,3,16,31,14,06,29,32,20,,,,,,2.3,1.0,2.0*3E
$GPGSV,3,1,10,16,67,243,22,31,55,028,27,32,40,256,24,14,34,133,26*71
$GPGSV,3,2,10,20,27,283,20,29,22,056,24,06,21,175,27,23,13,318,18*78
$GPGSV,3,3,10,03,11,189,16,30,05,046,*78
$GPRMC,072256.000,A,3030.8701,N,11423.0990,E,6.60,309.82,020708,,,A*6C
$GPGGA,072257.000,3030.8715,N,11423.0965,E,1,07,1.0,32.1,M,-13.6,M,,0000*42
$GPGSA,A,3,16,31,14,06,29,32,20,,,,,,2.3,1.0,2.0*3E
$GPRMC,072257.000,A,3030.8715,N,11423.0965,E,6.40,306.60,020708,,,A*63
